{"business_id": "tWvep1usNNI3NYkoRbSb7g", "name": "Airdrie East Side Storage", "address": "203 East Lake Road NE", "city": "Airdrie", "state": "AB", "postal_code": "T4A 2E9", "latitude": 51.293351, "longitude": -113.980976, "stars": 1.0, "review_count": 3, "is_open": 1, "attributes": null, "categories": null, "hours": null}
{"business_id": "Gq5Hb2yr2O3_jLWY4XXcZg", "name": "Jen's Noodle House", "address": "750 Main Street SW, Unit 1500", "city": "Airdrie", "state": "AB", "postal_code": "T4B 3M2", "latitude": 51.2866520073, "longitude": -114.0142864287, "stars": 3.0, "review_count": 5, "is_open": 1, "attributes": {"BusinessParking": "{'garage': False, 'street': False, 'validated': False, 'lot': False, 'valet': False}"}, "categories": "Ethnic Food, Food, Chinese, Vietnamese, Specialty Food, Restaurants", "hours": {"Monday": "11:0-21:0", "Tuesday": "11:0-21:0", "Wednesday": "11:0-21:0", "Thursday": "11:0-21:0", "Friday": "11:0-21:0", "Saturday": "11:0-21:0", "Sunday": "11:0-20:0"}}
{"business_id": "sc6rFKzTZWIkeauY8DSBng", "name": "Mezzanine Hair Studio", "address": "401 Coopers Boulevard SW", "city": "Airdrie", "state": "AB", "postal_code": "T4B 3Y3", "latitude": 51.2925081, "longitude": -114.0200669, "stars": 1.0, "review_count": 3, "is_open": 1, "attributes": {"BikeParking": "True", "RestaurantsPriceRange2": "2"}, "categories": "Beauty & Spas, Eyebrow Services, Waxing, Hair Salons, Hair Removal", "hours": {"Monday": "9:0-17:0", "Tuesday": "9:0-21:0", "Wednesday": "9:0-21:0", "Thursday": "9:0-21:0", "Friday": "9:0-18:0", "Saturday": "9:0-16:0"}}
{"business_id": "CZajE1EB58jg5HsFZ2hNBg", "name": "Hot Water Pools & Spas", "address": "73 E Lake Ramp NE, Suite 2", "city": "Airdrie", "state": "AB", "postal_code": "T4A 2K4", "latitude": 51.2953628, "longitude": -113.9992185, "stars": 3.5, "review_count": 3, "is_open": 1, "attributes": {"BusinessParking": "{'garage': False, 'street': False, 'validated': False, 'lot': True, 'valet': False}"}, "categories": "Shopping, Home & Garden, Hot Tub & Pool", "hours": {"Monday": "10:0-18:0", "Tuesday": "10:0-18:0", "Wednesday": "10:0-18:0", "Thursday": "10:0-18:0", "Friday": "10:0-18:0", "Saturday": "9:0-17:0"}}
{"business_id": "SvNCelOIChHXM18ntGvKhw", "name": "Pour Beer Market & Grill", "address": "960 Yankee Valley Boulevard  SE, Unit 210", "city": "Airdrie", "state": "AB", "postal_code": "T4A 2E4", "latitude": 51.2710541, "longitude": -113.9925649, "stars": 3.5, "review_count": 26, "is_open": 0, "attributes": {"RestaurantsAttire": "u'casual'", "Alcohol": "u'full_bar'", "RestaurantsGoodForGroups": "True", "RestaurantsDelivery": "False", "OutdoorSeating": "True", "NoiseLevel": "u'average'", "BusinessParking": "{'garage': False, 'street': False, 'validated': False, 'lot': False, 'valet': False}", "RestaurantsPriceRange2": "2", "WiFi": "'no'", "RestaurantsTakeOut": "True", "HasTV": "True", "Caters": "False", "BikeParking": "True", "RestaurantsReservations": "True", "Ambience": "{'romantic': False, 'intimate': False, 'classy': False, 'hipster': False, 'divey': False, 'touristy': False, 'trendy': False, 'upscale': False, 'casual': True}", "GoodForKids": "False"}, "categories": "Bars, Canadian (New), Gastropubs, Nightlife, Restaurants", "hours": {"Monday": "11:0-1:0", "Tuesday": "11:0-1:0", "Wednesday": "11:0-1:0", "Thursday": "11:0-1:0", "Friday": "11:0-1:0", "Saturday": "11:0-1:0", "Sunday": "11:0-1:0"}}
{"business_id": "vmDjlOf6j0B2ZHkHtWfrKg", "name": "Human Kanvas", "address": "124 1st Avenue NE, Suite 100", "city": "Airdrie", "state": "AB", "postal_code": "T4B 0R4", "latitude": 51.2928615881, "longitude": -114.0121548756, "stars": 1.5, "review_count": 3, "is_open": 1, "attributes": {"BikeParking": "True", "BusinessParking": "{'garage': False, 'street': False, 'validated': False, 'lot': False, 'valet': False}", "ByAppointmentOnly": "True", "RestaurantsPriceRange2": "4"}, "categories": "Beauty & Spas, Tattoo", "hours": {"Tuesday": "11:0-18:0", "Wednesday": "11:0-18:0", "Thursday": "11:0-18:0", "Friday": "11:0-18:0", "Saturday": "11:0-18:0"}}
{"business_id": "Oj4mcDFC13I7_NWV222iIg", "name": "Standard Tap Public House", "address": "505 Main Street, Unit 304", "city": "Airdrie", "state": "AB", "postal_code": "T4B 3K3", "latitude": 51.2889626757, "longitude": -114.0148311036, "stars": 3.5, "review_count": 10, "is_open": 0, "attributes": {"RestaurantsPriceRange2": "2", "Ambience": "{'romantic': False, 'intimate': False, 'classy': False, 'hipster': False, 'divey': False, 'touristy': False, 'trendy': False, 'upscale': False, 'casual': False}", "RestaurantsGoodForGroups": "True", "RestaurantsAttire": "'casual'", "RestaurantsReservations": "False", "RestaurantsTakeOut": "False", "RestaurantsDelivery": "False", "GoodForKids": "False", "WiFi": "u'free'"}, "categories": "Restaurants, Gastropubs, Food, Beer, Wine & Spirits", "hours": null}
{"business_id": "ExyTDNVvDb_jFQ-bC_E-OA", "name": "Airdrie Dog & Pony", "address": "2002 Luxstone Boulevard SW, Suite 107", "city": "Airdrie", "state": "AB", "postal_code": "T4B 3K8", "latitude": 51.2713661, "longitude": -114.0180155, "stars": 1.0, "review_count": 3, "is_open": 1, "attributes": {"RestaurantsPriceRange2": "4"}, "categories": "Pet Services, Shopping, Pet Stores, Pets", "hours": {"Monday": "0:0-0:0", "Tuesday": "7:0-18:30", "Wednesday": "7:0-18:30", "Thursday": "7:0-18:30", "Friday": "7:0-18:30", "Saturday": "9:0-17:0"}}
{"business_id": "1TZjRxcl0hS_w6Kc7CIT-w", "name": "Pure Xscape Nails & Spa", "address": "400 Main Street NE, Suite 113", "city": "Airdrie", "state": "AB", "postal_code": "T4B 2N1", "latitude": 51.2941751, "longitude": -114.0134848, "stars": 3.5, "review_count": 3, "is_open": 1, "attributes": {"ByAppointmentOnly": "False", "BusinessParking": "{'garage': False, 'street': False, 'validated': False, 'lot': False, 'valet': False}"}, "categories": "Eyebrow Services, Skin Care, Tanning, Nail Salons, Beauty & Spas, Eyelash Service", "hours": {"Monday": "10:0-19:0", "Tuesday": "10:0-19:0", "Wednesday": "10:0-19:0", "Thursday": "10:0-19:0", "Friday": "10:0-19:0", "Saturday": "10:0-19:0"}}
{"business_id": "NWTl5xvhOBpcHHifXI181w", "name": "Airdrie Urgent Care", "address": "604 Main St S", "city": "Airdrie", "state": "AB", "postal_code": "T4B 3M2", "latitude": 51.2870106, "longitude": -114.012535, "stars": 1.5, "review_count": 3, "is_open": 1, "attributes": {"ByAppointmentOnly": "False"}, "categories": "Health & Medical, Urgent Care", "hours": {"Monday": "8:0-22:0", "Tuesday": "8:0-22:0", "Wednesday": "8:0-22:0", "Thursday": "8:0-22:0", "Friday": "8:0-22:0", "Saturday": "8:0-22:0", "Sunday": "8:0-22:0"}}
{"business_id": "9gdKJh9uEwMinf2ktUuvZg", "name": "Embrace Bridal & Formal Fashions", "address": "7118 - 403 MacKenzie Way SW", "city": "Airdrie", "state": "AB", "postal_code": "T4B 3V7", "latitude": 51.2891191, "longitude": -114.0230171, "stars": 3.5, "review_count": 3, "is_open": 1, "attributes": {"BikeParking": "True", "RestaurantsPriceRange2": "2"}, "categories": "Shopping, Bridal", "hours": {"Tuesday": "11:0-19:0", "Wednesday": "11:0-19:0", "Thursday": "11:0-19:0", "Friday": "11:0-19:0", "Saturday": "10:0-17:0"}}
{"business_id": "wGoOWEue58i27zu2wYkiig", "name": "Zenbu", "address": "35 MacKenzie Way SW, Suite 5104", "city": "Airdrie", "state": "AB", "postal_code": "T4B", "latitude": 51.2918972, "longitude": -114.0243086, "stars": 4.5, "review_count": 15, "is_open": 1, "attributes": {"RestaurantsReservations": "True", "RestaurantsTakeOut": "True", "RestaurantsGoodForGroups": "True", "NoiseLevel": "u'quiet'", "OutdoorSeating": "False", "RestaurantsDelivery": "True", "GoodForKids": "True", "RestaurantsAttire": "u'casual'", "Ambience": "{'romantic': False, 'intimate': False, 'classy': False, 'hipster': False, 'divey': False, 'touristy': False, 'trendy': False, 'upscale': False, 'casual': False}", "BikeParking": "True", "HasTV": "False", "BusinessParking": "{'garage': False, 'street': False, 'validated': False, 'lot': False, 'valet': False}", "RestaurantsPriceRange2": "2"}, "categories": "Korean, Japanese, Sushi Bars, Restaurants", "hours": null}
{"business_id": "v_wCPqghNL_Q9G1deTTcWA", "name": "Smitty's Restaurant", "address": "191 E Lake Crescent NE", "city": "Airdrie", "state": "AB", "postal_code": "T4A 2H7", "latitude": 51.2867446, "longitude": -113.998161, "stars": 2.5, "review_count": 7, "is_open": 1, "attributes": null, "categories": "Caterers, Event Planning & Services, Restaurants, Breakfast & Brunch, Gluten-Free", "hours": {"Monday": "6:0-21:0", "Tuesday": "6:0-21:0", "Wednesday": "6:0-21:0", "Thursday": "6:0-21:0", "Friday": "6:0-21:0", "Saturday": "6:0-21:0", "Sunday": "6:0-21:0"}}
{"business_id": "u2ePX4axL3npfgtg_K9hUA", "name": "Wok Box", "address": "4101-35 Mackenzie Way SW", "city": "Airdrie", "state": "AB", "postal_code": "T4B 0V7", "latitude": 51.2899241, "longitude": -114.0227342, "stars": 3.0, "review_count": 3, "is_open": 0, "attributes": {"RestaurantsDelivery": "True", "RestaurantsGoodForGroups": "True", "BusinessParking": "{'garage': False, 'street': False, 'validated': False, 'lot': False, 'valet': False}", "OutdoorSeating": "False", "RestaurantsPriceRange2": "2", "HasTV": "False", "NoiseLevel": "u'quiet'", "GoodForKids": "True", "Ambience": "{'romantic': False, 'intimate': False, 'classy': False, 'upscale': False, 'touristy': False, 'trendy': False, 'hipster': False, 'casual': False}", "RestaurantsReservations": "False", "WiFi": "u'no'", "Alcohol": "u'none'", "RestaurantsTakeOut": "True", "RestaurantsAttire": "u'casual'"}, "categories": "Asian Fusion, Restaurants", "hours": null}
{"business_id": "WdTxsnwD7hh51v_hGSuP9Q", "name": "Tony's Vietnamese Noodle Restaurant", "address": "2914 Kingsview Boulevard SE, Suite 105", "city": "Airdrie", "state": "AB", "postal_code": "T4A 0E1", "latitude": 51.2621353, "longitude": -113.9938213, "stars": 4.0, "review_count": 25, "is_open": 1, "attributes": {"HasTV": "True", "Ambience": "{'romantic': False, 'intimate': False, 'classy': False, 'hipster': False, 'divey': False, 'touristy': False, 'trendy': False, 'upscale': False, 'casual': True}", "RestaurantsPriceRange2": "1", "WiFi": "u'free'", "RestaurantsReservations": "True", "OutdoorSeating": "False", "RestaurantsAttire": "u'casual'", "RestaurantsTakeOut": "True", "RestaurantsDelivery": "True", "BusinessParking": "{'garage': True, 'street': True, 'validated': False, 'lot': False, 'valet': False}", "Alcohol": "u'full_bar'", "Caters": "True", "GoodForKids": "True", "GoodForMeal": "{'dessert': False, 'latenight': False, 'lunch': True, 'dinner': True, 'brunch': False, 'breakfast': False}", "RestaurantsTableService": "True", "RestaurantsGoodForGroups": "True", "BikeParking": "True", "NoiseLevel": "'quiet'"}, "categories": "Vegetarian, Restaurants, Soup, Vietnamese", "hours": {"Monday": "10:0-21:30", "Tuesday": "10:0-21:30", "Wednesday": "10:0-21:30", "Thursday": "10:0-21:30", "Friday": "10:0-21:30", "Saturday": "11:0-21:0", "Sunday": "11:0-21:0"}}
{"business_id": "hdxUuYPS2XfhI1DJU6Ferw", "name": "Towerlane Barber Shop", "address": "121 Main Street, Suite 404", "city": "Airdrie", "state": "AB", "postal_code": "T4B 0P8", "latitude": 51.2909827, "longitude": -114.0147303, "stars": 2.5, "review_count": 3, "is_open": 1, "attributes": {"RestaurantsPriceRange2": "2"}, "categories": "Beauty & Spas, Barbers", "hours": {"Monday": "9:0-18:0", "Tuesday": "9:0-18:0", "Wednesday": "9:0-18:0", "Thursday": "9:0-18:0", "Friday": "9:0-18:0", "Saturday": "9:0-17:0"}}
{"business_id": "Uk9q55mxI6a93ouX-On8_Q", "name": "Rice for King", "address": "30 Market Boulevard SE, Suite 113", "city": "Airdrie", "state": "AB", "postal_code": "T4A 0K9", "latitude": 51.2687793, "longitude": -113.9939037, "stars": 3.0, "review_count": 5, "is_open": 1, "attributes": {"RestaurantsPriceRange2": "2", "BusinessParking": "{'garage': False, 'street': False, 'validated': False, 'lot': False, 'valet': False}"}, "categories": "Restaurants, Vietnamese", "hours": {"Monday": "11:0-21:0", "Tuesday": "11:0-21:0", "Wednesday": "11:0-21:0", "Thursday": "11:0-21:0", "Friday": "11:0-21:0", "Saturday": "11:0-21:0", "Sunday": "11:0-21:0"}}
{"business_id": "Y215h1axZB7sK56nP38KLg", "name": "Airdrie Animal Clinic", "address": "101 - 117 East Lake Cres", "city": "Airdrie", "state": "AB", "postal_code": "T4A 2H6", "latitude": 51.2915143, "longitude": -113.9982283, "stars": 3.5, "review_count": 3, "is_open": 1, "attributes": null, "categories": "Pets, Veterinarians", "hours": {"Monday": "8:0-20:0", "Tuesday": "8:0-20:0", "Wednesday": "8:0-20:0", "Thursday": "8:0-20:0", "Friday": "8:0-18:0", "Saturday": "9:0-17:0"}}
{"business_id": "C-EO3MPFrcJmNucuPmCOFg", "name": "Main Street Beer & BBQ", "address": "304 505 Main Street", "city": "Airdrie", "state": "AB", "postal_code": "T4B 3K3", "latitude": 51.2886338, "longitude": -114.0145264, "stars": 3.0, "review_count": 18, "is_open": 1, "attributes": {"Alcohol": "u'full_bar'", "NoiseLevel": "u'very_loud'", "Ambience": "{'touristy': False, 'hipster': False, 'romantic': False, 'intimate': False, 'trendy': False, 'upscale': False, 'classy': False, 'casual': False}", "RestaurantsDelivery": "False", "GoodForMeal": "{'dessert': False, 'latenight': False, 'lunch': False, 'dinner': False, 'brunch': False, 'breakfast': False}", "RestaurantsPriceRange2": "2", "BusinessParking": "{'garage': False, 'street': False, 'validated': False, 'lot': False, 'valet': False}", "WiFi": "'free'", "BikeParking": "True", "OutdoorSeating": "False", "RestaurantsAttire": "'casual'", "GoodForKids": "False", "RestaurantsReservations": "True", "RestaurantsTableService": "True", "HasTV": "True", "RestaurantsTakeOut": "True", "RestaurantsGoodForGroups": "True"}, "categories": "Restaurants, Barbeque", "hours": {"Monday": "11:0-1:0", "Tuesday": "11:0-1:0", "Wednesday": "11:0-1:0", "Thursday": "11:0-2:0", "Friday": "11:0-2:0", "Saturday": "11:0-2:0", "Sunday": "11:0-1:0"}}
{"business_id": "URPVZaGWXBguYakMaqUJrQ", "name": "Tacos Puerto Vallarta", "address": "521 3rd Avenue NE", "city": "Airdrie", "state": "AB", "postal_code": "T4B 1R8", "latitude": 51.2941841, "longitude": -114.0020334, "stars": 4.5, "review_count": 28, "is_open": 0, "attributes": {"RestaurantsTakeOut": "True", "RestaurantsDelivery": "False", "RestaurantsReservations": "True", "WiFi": "u'free'", "OutdoorSeating": "False", "NoiseLevel": "u'average'", "RestaurantsPriceRange2": "2", "Ambience": "{'romantic': False, 'intimate': False, 'classy': False, 'hipster': False, 'divey': False, 'touristy': False, 'trendy': False, 'upscale': False, 'casual': False}", "RestaurantsGoodForGroups": "True", "GoodForKids": "True", "BikeParking": "True", "HasTV": "True", "RestaurantsAttire": "u'casual'", "BusinessParking": "{'garage': False, 'street': True, 'validated': False, 'lot': False, 'valet': False}", "Alcohol": "'beer_and_wine'"}, "categories": "Mexican, Restaurants", "hours": {"Tuesday": "12:0-20:0", "Wednesday": "12:0-20:0", "Thursday": "12:0-20:0", "Friday": "12:0-21:0", "Saturday": "12:0-21:0", "Sunday": "12:0-20:0"}}
{"business_id": "YCrK4PRlqbwjzBW0lc2FNA", "name": "Mr. Lube", "address": "2881 Main Street SW", "city": "Airdrie", "state": "AB", "postal_code": "T4B 3G5", "latitude": 51.262447, "longitude": -114.0071197, "stars": 1.0, "review_count": 3, "is_open": 1, "attributes": null, "categories": "Auto Repair, Auto Glass Services, Tires, Oil Change Stations, Automotive", "hours": {"Monday": "8:0-20:0", "Tuesday": "8:0-20:0", "Wednesday": "8:0-20:0", "Thursday": "8:0-20:0", "Friday": "8:0-20:0", "Saturday": "8:0-18:0", "Sunday": "9:0-17:0"}}
{"business_id": "jxSmtPAVcVoi0vPC85xz0g", "name": "Freshii", "address": "105 Main Street N", "city": "Airdrie", "state": "AB", "postal_code": "T4B 0R3", "latitude": 51.2916757, "longitude": -114.0137807, "stars": 2.5, "review_count": 3, "is_open": 1, "attributes": {"Caters": "True"}, "categories": "Food, Juice Bars & Smoothies, Restaurants, Salad, Tex-Mex", "hours": {"Monday": "8:0-20:0", "Tuesday": "8:0-20:0", "Wednesday": "8:0-20:0", "Thursday": "8:0-20:0", "Friday": "8:0-20:0", "Saturday": "8:0-20:0", "Sunday": "8:0-20:0"}}
{"business_id": "C2p9SIPijF0owPVngiCqFw", "name": "Vietnamese Western Cuisine", "address": "110 2002 Luxstone Blvd SW", "city": "Airdrie", "state": "AB", "postal_code": "T4B 3J9", "latitude": 51.27179056, "longitude": -114.0176109926, "stars": 3.5, "review_count": 7, "is_open": 1, "attributes": {"RestaurantsPriceRange2": "1", "Ambience": "{'romantic': False, 'intimate': False, 'classy': False, 'hipster': False, 'divey': False, 'touristy': False, 'trendy': False, 'upscale': False, 'casual': False}", "RestaurantsReservations": "False", "BusinessParking": "{'garage': False, 'street': False, 'validated': False, 'lot': False, 'valet': False}", "RestaurantsTakeOut": "True", "OutdoorSeating": "False", "NoiseLevel": "u'quiet'", "BikeParking": "True", "HasTV": "True", "RestaurantsGoodForGroups": "False", "WiFi": "'no'", "GoodForKids": "True", "RestaurantsAttire": "'casual'"}, "categories": "Food, Restaurants, Vietnamese", "hours": null}
{"business_id": "uGfpnmFqEscqnNNVn_goaA", "name": "Ok Tire & Auto Service", "address": "525 1 Avenue NE", "city": "Airdrie", "state": "AB", "postal_code": "T4B 1R9", "latitude": 51.2923509, "longitude": -114.002539, "stars": 5.0, "review_count": 4, "is_open": 1, "attributes": null, "categories": "Auto Repair, Automotive, Tires", "hours": null}
{"business_id": "go9hSfUxG_1REqTi5HZJUw", "name": "Walmart", "address": "2881 Main Street SW", "city": "Airdrie", "state": "AB", "postal_code": "T4B", "latitude": 51.2623972193, "longitude": -114.0066176258, "stars": 3.5, "review_count": 3, "is_open": 1, "attributes": {"RestaurantsPriceRange2": "1", "BusinessParking": "{'garage': True, 'street': False, 'validated': False, 'lot': False, 'valet': False}", "BikeParking": "True"}, "categories": "Eyewear & Opticians, Shopping, Tires, Automotive, Department Stores, Fashion", "hours": null}
{"business_id": "AzXWlrlDsNxvvRV0t8z8Gg", "name": "Tam's Kitchen", "address": "224A Main Street NE", "city": "Airdrie", "state": "AB", "postal_code": "T4B 0R6", "latitude": 51.293432, "longitude": -114.0133111, "stars": 1.0, "review_count": 3, "is_open": 1, "attributes": {"WiFi": "u'free'", "RestaurantsReservations": "False", "HasTV": "False", "WheelchairAccessible": "True", "BikeParking": "True", "Alcohol": "u'none'", "OutdoorSeating": "True", "DogsAllowed": "False", "BusinessParking": "{'garage': False, 'street': True, 'validated': False, 'lot': True, 'valet': False}", "RestaurantsDelivery": "False", "RestaurantsTakeOut": "True", "RestaurantsTableService": "True", "Caters": "True"}, "categories": "Soup, Asian Fusion, Chinese, Vietnamese, Restaurants, Burgers", "hours": {"Monday": "0:0-0:0", "Tuesday": "11:0-20:0", "Wednesday": "11:0-20:0", "Thursday": "11:0-20:0", "Friday": "11:0-20:0", "Saturday": "16:0-21:0"}}
{"business_id": "xOctL53T9l7eNQaZyw-zCw", "name": "Enterprise Rent-A-Car", "address": "220 Eastlake Blvd, Bay 1", "city": "Airdrie", "state": "AB", "postal_code": "T4A 2G2", "latitude": 51.291901, "longitude": -113.98996, "stars": 2.0, "review_count": 3, "is_open": 1, "attributes": null, "categories": "Hotels & Travel, Car Rental", "hours": {"Monday": "8:0-18:0", "Tuesday": "8:0-18:0", "Wednesday": "8:0-18:0", "Thursday": "8:0-18:0", "Friday": "8:0-18:0", "Saturday": "9:0-12:0"}}
{"business_id": "VGGtgXPfCx8WVPzoAXHG0w", "name": "Main Street Barber Shop", "address": "104-132 Main St N", "city": "Airdrie", "state": "AB", "postal_code": "T4B 0P7", "latitude": 51.29205603, "longitude": -114.0133359917, "stars": 2.5, "review_count": 3, "is_open": 1, "attributes": {"ByAppointmentOnly": "False", "RestaurantsPriceRange2": "1", "BikeParking": "True"}, "categories": "Beauty & Spas, Barbers", "hours": {"Monday": "9:0-19:0", "Tuesday": "9:0-19:0", "Wednesday": "9:0-19:0", "Thursday": "9:0-19:0", "Friday": "9:0-19:0", "Saturday": "9:0-18:0", "Sunday": "10:0-16:0"}}
{"business_id": "QYz_uxV5BL8hFsrSBwGPeg", "name": "Chicago Deep Dish Pizza", "address": "2002 Luxstone Link SW", "city": "Airdrie", "state": "AB", "postal_code": "T4B 0A5", "latitude": 51.2755384, "longitude": -114.0182644, "stars": 3.5, "review_count": 3, "is_open": 1, "attributes": null, "categories": "Restaurants, Pizza", "hours": {"Monday": "10:30-22:0", "Tuesday": "10:30-22:0", "Wednesday": "10:30-22:0", "Thursday": "10:30-22:0", "Friday": "10:30-0:0", "Saturday": "11:0-0:0", "Sunday": "16:0-22:0"}}
{"business_id": "_C_O-lj-r2NhXjKd6SfhyA", "name": "City Centre Animal Hospital", "address": "705 Main Street S, Unit 1600", "city": "Airdrie", "state": "AB", "postal_code": "T4B 3M2", "latitude": 51.2865712, "longitude": -114.0149368, "stars": 2.5, "review_count": 3, "is_open": 1, "attributes": null, "categories": "Pet Services, Veterinarians, Pets", "hours": {"Monday": "8:30-22:0", "Tuesday": "8:30-22:0", "Wednesday": "8:30-22:0", "Thursday": "8:30-22:0", "Friday": "8:30-22:0", "Saturday": "8:30-22:0", "Sunday": "8:30-22:0"}}
{"business_id": "kdFc8wcrwTV5CPX02djB5A", "name": "Marble Slab Creamery", "address": "505 Main St SW", "city": "Airdrie", "state": "AB", "postal_code": "T4B 3M2", "latitude": 51.2896943, "longitude": -114.013885, "stars": 4.5, "review_count": 3, "is_open": 1, "attributes": {"RestaurantsPriceRange2": "4", "BusinessParking": "{'garage': False, 'street': False, 'validated': False, 'lot': False, 'valet': False}"}, "categories": "Food, Ice Cream & Frozen Yogurt", "hours": null}
{"business_id": "lDFSx3D5AKfza3GjpPV6BA", "name": "IL Forno", "address": "2914 Kingsview Boulevard, Suite 209", "city": "Airdrie", "state": "AB", "postal_code": "T4A 0E1", "latitude": 51.2620693, "longitude": -113.9936526, "stars": 4.5, "review_count": 19, "is_open": 1, "attributes": {"RestaurantsPriceRange2": "3", "RestaurantsDelivery": "True", "Alcohol": "u'full_bar'", "RestaurantsReservations": "True", "BikeParking": "True", "Ambience": "{'romantic': False, 'intimate': False, 'classy': False, 'hipster': False, 'divey': False, 'touristy': False, 'trendy': False, 'upscale': False, 'casual': False}", "RestaurantsAttire": "u'dressy'", "RestaurantsGoodForGroups": "True", "NoiseLevel": "u'quiet'", "HasTV": "False", "GoodForKids": "False", "WheelchairAccessible": "True", "RestaurantsTakeOut": "True", "Caters": "True", "DogsAllowed": "False", "OutdoorSeating": "False", "WiFi": "u'free'", "BusinessParking": "{'garage': False, 'street': True, 'validated': False, 'lot': True, 'valet': False}", "RestaurantsTableService": "True"}, "categories": "Restaurants, Italian, Pizza", "hours": {"Monday": "17:0-22:0", "Tuesday": "17:0-22:0", "Wednesday": "17:0-22:0", "Thursday": "17:0-22:0", "Friday": "17:0-22:0", "Saturday": "17:0-22:0", "Sunday": "17:0-21:0"}}
{"business_id": "XP2-85idhfplo8P0Pvj_Gg", "name": "Sorso Espresso & Wine Bar", "address": "401-800 Yankee Valley boulevard, Suite 401", "city": "Airdrie", "state": "AB", "postal_code": "T4B 3Y2", "latitude": 51.2714821, "longitude": -114.0257166, "stars": 4.0, "review_count": 22, "is_open": 1, "attributes": {"OutdoorSeating": "True", "DogsAllowed": "True", "RestaurantsTakeOut": "True", "CoatCheck": "False", "Music": "{'dj': False, 'background_music': True, 'jukebox': False, 'live': False, 'video': False, 'karaoke': False}", "GoodForDancing": "False", "WiFi": "'free'", "WheelchairAccessible": "True", "BusinessParking": "{'garage': False, 'street': False, 'validated': False, 'lot': False, 'valet': False}", "NoiseLevel": "u'average'", "Caters": "True", "Alcohol": "u'full_bar'", "RestaurantsDelivery": "False", "RestaurantsAttire": "u'casual'", "Ambience": "{'romantic': False, 'intimate': False, 'classy': False, 'hipster': True, 'divey': False, 'touristy': False, 'trendy': False, 'upscale': False, 'casual': False}", "RestaurantsPriceRange2": "2", "RestaurantsReservations": "True", "HappyHour": "True", "GoodForKids": "True", "BikeParking": "True", "RestaurantsGoodForGroups": "True", "GoodForMeal": "{'dessert': True, 'latenight': False, 'lunch': False, 'dinner': False, 'brunch': True, 'breakfast': True}", "Smoking": "u'no'", "RestaurantsTableService": "True", "HasTV": "True"}, "categories": "Cafes, Tapas/Small Plates, Restaurants, Nightlife, Gastropubs, Coffee & Tea, Beer, Wine & Spirits, Food, Sandwiches, Bars, Breakfast & Brunch, Tapas Bars", "hours": {"Monday": "7:0-21:0", "Tuesday": "7:0-21:0", "Wednesday": "7:0-22:0", "Thursday": "7:0-22:0", "Friday": "7:0-0:0", "Saturday": "8:0-0:0"}}
{"business_id": "6Li2SlilRaDLn9DhwetpkQ", "name": "Davis Chevrolet", "address": "149 E Lake Crescent NE", "city": "Airdrie", "state": "AB", "postal_code": "T4A 2H7", "latitude": 51.2876885431, "longitude": -113.994998742, "stars": 3.0, "review_count": 3, "is_open": 1, "attributes": null, "categories": "Car Dealers, Automotive, Oil Change Stations, Auto Repair, Auto Parts & Supplies", "hours": {"Monday": "8:30-21:0", "Tuesday": "8:30-21:0", "Wednesday": "8:30-21:0", "Thursday": "8:30-21:0", "Saturday": "9:0-17:0"}}
{"business_id": "xavetAIhIe7TTtterRUHyw", "name": "Tools in Motion Auto Service", "address": "127 Kingsview Road SE", "city": "Airdrie", "state": "AB", "postal_code": "T4A 0A8", "latitude": 51.2590900303, "longitude": -113.9996154238, "stars": 4.0, "review_count": 5, "is_open": 1, "attributes": null, "categories": "Automotive, Auto Repair", "hours": {"Monday": "8:0-19:0", "Tuesday": "8:0-19:0", "Wednesday": "8:0-19:0", "Thursday": "8:0-19:0", "Friday": "8:0-18:0"}}
{"business_id": "Q3pofS3PGd64xoXa-3efiw", "name": "Noodle King", "address": "", "city": "Airdrie", "state": "AB", "postal_code": "T4B 3G2", "latitude": 51.2652115763, "longitude": -114.0045341849, "stars": 2.5, "review_count": 3, "is_open": 1, "attributes": {"BusinessParking": "{'garage': False, 'street': False, 'validated': False, 'lot': False, 'valet': False}", "GoodForKids": "True", "RestaurantsTakeOut": "True", "GoodForMeal": "{'dessert': False, 'latenight': False, 'lunch': False, 'dinner': False, 'brunch': False, 'breakfast': False}", "RestaurantsPriceRange2": "2", "RestaurantsGoodForGroups": "True"}, "categories": "Restaurants, Vietnamese", "hours": {"Monday": "11:0-20:30", "Tuesday": "11:0-20:30", "Wednesday": "11:0-20:30", "Thursday": "11:0-20:30", "Friday": "11:0-20:30", "Saturday": "11:30-20:30", "Sunday": "11:30-20:30"}}
{"business_id": "Lkqf6XcYy83fyU5_JvccNQ", "name": "Airdrie Animal Health Centre", "address": "1105-35 MacKenzie Way SW", "city": "Airdrie", "state": "AB", "postal_code": "T4B 0V7", "latitude": 51.292423, "longitude": -114.024109, "stars": 3.0, "review_count": 4, "is_open": 1, "attributes": null, "categories": "Pet Services, Pets, Veterinarians", "hours": {"Monday": "8:0-18:0", "Tuesday": "8:0-18:0", "Wednesday": "8:0-18:0", "Thursday": "8:0-18:0", "Friday": "8:0-18:0", "Saturday": "9:0-16:0"}}
{"business_id": "Nph7wUNRXpQ01ArJbhQP7A", "name": "The Canadian Brewhouse", "address": "130 Sierra Springs Drive SE", "city": "Airdrie", "state": "AB", "postal_code": "T4B 3G6", "latitude": 51.2678632349, "longitude": -114.0026772174, "stars": 3.5, "review_count": 22, "is_open": 1, "attributes": {"OutdoorSeating": "True", "RestaurantsDelivery": "False", "Smoking": "u'no'", "GoodForKids": "True", "DriveThru": "False", "HasTV": "True", "GoodForMeal": "{'dessert': False, 'latenight': False, 'lunch': False, 'dinner': False, 'brunch': False, 'breakfast': False}", "BusinessParking": "{'garage': False, 'street': False, 'validated': False, 'lot': True, 'valet': False}", "HappyHour": "False", "Ambience": "{'romantic': False, 'intimate': False, 'classy': False, 'hipster': False, 'divey': False, 'touristy': False, 'trendy': False, 'upscale': False, 'casual': True}", "DogsAllowed": "False", "RestaurantsTakeOut": "True", "RestaurantsPriceRange2": "2", "RestaurantsReservations": "True", "RestaurantsAttire": "u'casual'", "RestaurantsGoodForGroups": "True", "BikeParking": "True", "NoiseLevel": "u'loud'", "BestNights": "{'monday': False, 'tuesday': False, 'friday': False, 'wednesday': True, 'thursday': False, 'sunday': False, 'saturday': False}", "GoodForDancing": "False", "Music": "{'dj': False}", "RestaurantsTableService": "True", "WiFi": "u'free'", "Alcohol": "u'full_bar'", "Caters": "True", "CoatCheck": "False"}, "categories": "Pubs, Burgers, Food, Beer, Wine & Spirits, Nightlife, Bars, Restaurants, Sports Bars, Salad, Pizza, Canadian (New)", "hours": {"Monday": "11:0-1:0", "Tuesday": "11:0-1:0", "Wednesday": "11:0-2:0", "Thursday": "11:0-2:0", "Friday": "11:0-2:0", "Saturday": "10:0-2:0", "Sunday": "10:0-2:0"}}
{"business_id": "jIZz40R4a7_mD4kjPDok1A", "name": "Human Kanvas", "address": "106-960 Yankee Valley Boulevard SE", "city": "Airdrie", "state": "AB", "postal_code": "T4A 2E4", "latitude": 51.272135, "longitude": -113.993222, "stars": 4.0, "review_count": 6, "is_open": 1, "attributes": null, "categories": "Beauty & Spas, Tattoo, Piercing", "hours": {"Tuesday": "11:0-18:0", "Wednesday": "11:0-18:0", "Thursday": "11:0-18:0", "Friday": "11:0-18:0", "Saturday": "11:0-18:0"}}
{"business_id": "cmYli2oTH4ocXzhVWXQcRw", "name": "Sunridge Rv & Trailer Sales", "address": "63 Kingsview Road SE", "city": "Airdrie", "state": "AB", "postal_code": "T4A 0A8", "latitude": 51.265039, "longitude": -113.9997521, "stars": 3.0, "review_count": 4, "is_open": 0, "attributes": null, "categories": "Automotive, Auto Repair", "hours": {"Monday": "9:0-17:0", "Tuesday": "9:0-17:0", "Wednesday": "9:0-17:0", "Thursday": "9:0-17:0", "Friday": "9:0-17:0", "Saturday": "9:0-17:0"}}
{"business_id": "8gAG5mc4UWSdoIJfDgXd8w", "name": "Thai Tai", "address": "2121-2800 Main Street S", "city": "Airdrie", "state": "AB", "postal_code": "T4B 3G2", "latitude": 51.26541743, "longitude": -114.0042937736, "stars": 1.5, "review_count": 3, "is_open": 1, "attributes": null, "categories": "Bubble Tea, Restaurants, Food, Vietnamese, Soup, Noodles", "hours": {"Monday": "11:30-21:0", "Tuesday": "11:30-21:0", "Wednesday": "11:30-21:0", "Thursday": "11:30-21:0", "Friday": "11:30-21:0", "Saturday": "11:30-21:0", "Sunday": "12:0-20:30"}}
{"business_id": "3FEIlpOUCDdszcKksu0IOw", "name": "Sam's Eatery", "address": "960 Yankee Valley Boulevard SE, Suite 113", "city": "Airdrie", "state": "AB", "postal_code": "T4A 2E4", "latitude": 51.2720031, "longitude": -113.9926433, "stars": 3.5, "review_count": 3, "is_open": 1, "attributes": {"Alcohol": "u'none'", "Caters": "True", "RestaurantsAttire": "u'casual'", "RestaurantsDelivery": "True", "Ambience": "{'romantic': False, 'intimate': False, 'classy': False, 'hipster': False, 'divey': False, 'touristy': False, 'trendy': False, 'upscale': False, 'casual': False}", "BusinessParking": "{'garage': False, 'street': False, 'validated': False, 'lot': False, 'valet': False}", "BikeParking": "True", "RestaurantsTableService": "False", "GoodForMeal": "{'dessert': False, 'latenight': False, 'lunch': False, 'dinner': False, 'brunch': False, 'breakfast': False}", "RestaurantsPriceRange2": "1", "NoiseLevel": "u'average'", "RestaurantsTakeOut": "True", "GoodForKids": "True", "RestaurantsGoodForGroups": "True", "HasTV": "True"}, "categories": "Restaurants, Mediterranean", "hours": {"Monday": "10:0-21:0", "Tuesday": "10:0-21:0", "Wednesday": "10:0-21:0", "Thursday": "10:0-21:0", "Friday": "10:0-0:0", "Saturday": "10:0-0:0", "Sunday": "11:0-19:0"}}
{"business_id": "TZd8dv900sKMymeLNOsE1w", "name": "Baby Tooth Bambino's Neighbourhood", "address": "2145 Summerfield Boulevad SE", "city": "Airdrie", "state": "AB", "postal_code": "T4B 1X5", "latitude": 51.2737213, "longitude": -114.0125741, "stars": 3.5, "review_count": 4, "is_open": 1, "attributes": null, "categories": "Food, Bars, Nightlife, Beer, Wine & Spirits, Pubs", "hours": null}
{"business_id": "w8-ZEZZaI857IvrBl7CKlw", "name": "Win Garden", "address": "130 Sierra Springs Drive SE", "city": "Airdrie", "state": "AB", "postal_code": "T4B 2Y1", "latitude": 51.2673123, "longitude": -114.0031099, "stars": 4.5, "review_count": 7, "is_open": 1, "attributes": {"RestaurantsDelivery": "True", "RestaurantsGoodForGroups": "True", "OutdoorSeating": "False", "RestaurantsPriceRange2": "2", "BusinessParking": "{'garage': False, 'street': False, 'validated': False, 'lot': False, 'valet': False}", "RestaurantsAttire": "u'casual'", "RestaurantsReservations": "True", "GoodForKids": "True", "BikeParking": "True", "WiFi": "u'free'", "RestaurantsTakeOut": "True", "HasTV": "True", "Alcohol": "'none'", "NoiseLevel": "u'quiet'", "Caters": "False", "Ambience": "{'romantic': False, 'intimate': False, 'classy': False, 'hipster': False, 'divey': False, 'touristy': False, 'trendy': False, 'upscale': False, 'casual': False}"}, "categories": "Chinese, Restaurants", "hours": {"Monday": "11:0-21:30", "Tuesday": "11:0-21:30", "Wednesday": "11:0-21:30", "Thursday": "11:0-21:30", "Friday": "11:0-22:0", "Sunday": "11:0-21:30"}}
{"business_id": "5AtQ8OO1A-LihoUj2HOdEQ", "name": "Where On Earth Did You Get That", "address": "325 Edmonton Trail SE", "city": "Airdrie", "state": "AB", "postal_code": "T4B 2C2", "latitude": 51.289176, "longitude": -114.002176, "stars": 3.5, "review_count": 3, "is_open": 1, "attributes": {"BusinessParking": "{'garage': False, 'street': False, 'validated': False, 'lot': True, 'valet': False}", "ByAppointmentOnly": "False", "BikeParking": "False", "RestaurantsPriceRange2": "2"}, "categories": "Antiques, Shopping", "hours": {"Monday": "10:0-18:0", "Tuesday": "10:0-18:0", "Wednesday": "10:0-18:0", "Thursday": "10:0-18:0", "Friday": "10:0-18:0", "Saturday": "10:0-18:0", "Sunday": "12:0-17:0"}}
{"business_id": "jzoEXmcfyZ42N9KVrvWV9A", "name": "Shawarma Palace", "address": "960 Yankee Valley Blvd SE, Unit 114", "city": "Airdrie", "state": "AB", "postal_code": "T4A 2E4", "latitude": 51.2720031, "longitude": -113.9926434, "stars": 3.5, "review_count": 5, "is_open": 1, "attributes": null, "categories": "Food, Donairs, Middle Eastern, Restaurants, Halal, Mediterranean", "hours": {"Monday": "10:0-23:0", "Tuesday": "10:0-23:0", "Wednesday": "10:0-23:0", "Thursday": "10:0-23:0", "Friday": "10:0-23:0", "Saturday": "10:0-23:0", "Sunday": "10:0-23:0"}}
{"business_id": "Q-ncQPq0btYe9zaTclbGxA", "name": "Krave Pizza & Bar", "address": "705 Main Street, Suite 100", "city": "Airdrie", "state": "AB", "postal_code": "T4B 3M2", "latitude": 51.2870307094, "longitude": -114.015515882, "stars": 5.0, "review_count": 5, "is_open": 0, "attributes": {"BikeParking": "True", "RestaurantsAttire": "'casual'", "BusinessParking": "{'garage': False, 'street': True, 'validated': False, 'lot': True, 'valet': False}", "RestaurantsReservations": "True", "NoiseLevel": "u'average'", "RestaurantsPriceRange2": "2", "Alcohol": "u'full_bar'", "RestaurantsGoodForGroups": "True", "WiFi": "u'free'", "GoodForKids": "True", "OutdoorSeating": "True", "RestaurantsDelivery": "True", "Caters": "False", "RestaurantsTakeOut": "True", "HasTV": "True"}, "categories": "Restaurants, Nightlife, Karaoke, Bars, Pizza, Steakhouses, Pubs", "hours": {"Monday": "11:0-0:0", "Tuesday": "11:0-2:0", "Wednesday": "11:0-2:0", "Thursday": "11:0-2:0", "Friday": "11:0-2:0", "Saturday": "11:0-2:0", "Sunday": "11:0-23:30"}}
{"business_id": "N9K5C6EWhPsUdXasTgGYMg", "name": "Paradize Nails & Hair salon", "address": "5102 - 35 Mackenzie Way SW", "city": "Airdrie", "state": "AB", "postal_code": "T4B 0V7", "latitude": 51.2914162, "longitude": -114.0246776, "stars": 2.5, "review_count": 3, "is_open": 1, "attributes": null, "categories": "Hair Salons, Nail Salons, Beauty & Spas", "hours": {"Monday": "10:0-19:0", "Tuesday": "10:0-19:0", "Wednesday": "10:0-19:0", "Thursday": "10:0-19:0", "Friday": "10:0-19:0", "Saturday": "10:0-17:0", "Sunday": "10:0-17:0"}}
{"business_id": "rfNklusH3SRG_hyRH-6fdw", "name": "Pizza Cottage", "address": "800 Yankee Valley Boulevard, Suite 601", "city": "Airdrie", "state": "AB", "postal_code": "T4B 2X3", "latitude": 51.2718056771, "longitude": -114.0259181051, "stars": 3.0, "review_count": 4, "is_open": 1, "attributes": {"RestaurantsDelivery": "True"}, "categories": "Chicken Wings, Restaurants, Donairs, Food, Pizza", "hours": {"Monday": "11:0-22:30", "Tuesday": "11:0-22:30", "Wednesday": "11:0-22:30", "Thursday": "11:0-22:30", "Friday": "11:0-23:0", "Saturday": "11:0-23:0", "Sunday": "11:0-22:30"}}
{"business_id": "b_gz9-Vpk1uMdKdaWqfStg", "name": "Little Caesars Pizza", "address": "1800 Market St SE", "city": "Airdrie", "state": "AB", "postal_code": "T3A 0K9", "latitude": 51.2698363248, "longitude": -113.9881324768, "stars": 1.5, "review_count": 3, "is_open": 1, "attributes": {"BusinessParking": "{'garage': False, 'street': False, 'validated': False, 'lot': False, 'valet': False}", "RestaurantsPriceRange2": "1"}, "categories": "Restaurants, Food, Pizza", "hours": null}
{"business_id": "x9H4xYMEUNBaouSTBrw5Gg", "name": "Gilligan's Boat Sales", "address": "43 East Lake Cres NE", "city": "Airdrie", "state": "AB", "postal_code": "T4A 2H5", "latitude": 51.292551, "longitude": -113.9940119, "stars": 5.0, "review_count": 3, "is_open": 1, "attributes": null, "categories": "Boating, Active Life", "hours": null}
{"business_id": "vv1UQb95nIQ2_Ox9Zz5T6g", "name": "State & Main", "address": "30 Market Blvd SE", "city": "Airdrie", "state": "AB", "postal_code": "T4A 0K9", "latitude": 51.2686514393, "longitude": -113.9949840089, "stars": 2.5, "review_count": 11, "is_open": 1, "attributes": {"DriveThru": "False"}, "categories": "Restaurants, Sports Bars, Pubs, Sandwiches, Nightlife, Bars, Breakfast & Brunch, American (Traditional), Burgers", "hours": {"Monday": "11:0-23:0", "Tuesday": "11:0-23:0", "Wednesday": "11:0-0:0", "Thursday": "11:0-0:0", "Friday": "11:0-1:0", "Saturday": "11:0-1:0", "Sunday": "11:0-0:0"}}
{"business_id": "rClXlC_DGEuF7UEAtsiBoA", "name": "Lube City", "address": "119 8th Street SW", "city": "Airdrie", "state": "AB", "postal_code": "T4B 2X7", "latitude": 51.2918286162, "longitude": -114.0258484907, "stars": 3.5, "review_count": 3, "is_open": 1, "attributes": null, "categories": "Oil Change Stations, Auto Repair, Automotive", "hours": {"Monday": "8:0-19:0", "Tuesday": "8:0-19:0", "Wednesday": "8:0-19:0", "Thursday": "8:0-19:0", "Friday": "8:0-19:0", "Saturday": "8:0-17:0", "Sunday": "10:0-17:0"}}
{"business_id": "rX73ntynjq--dXUPDBk_pg", "name": "Smart Automotive", "address": "145 E Lake Boulevard NE", "city": "Airdrie", "state": "AB", "postal_code": "T4A 2G1", "latitude": 51.2978143, "longitude": -113.9907654, "stars": 4.0, "review_count": 3, "is_open": 1, "attributes": null, "categories": "Auto Repair, Automotive, Tires", "hours": {"Monday": "8:0-17:0", "Tuesday": "8:0-17:0", "Wednesday": "8:0-17:0", "Thursday": "8:0-17:0", "Friday": "8:0-17:0", "Saturday": "8:0-15:0"}}
{"business_id": "z4A8IfXE39QW5DTIDU9hWA", "name": "Airdrie Auto Trends", "address": "2958 Main Street SE, Suite 105", "city": "Airdrie", "state": "AB", "postal_code": "T4B 3G5", "latitude": 51.2586757, "longitude": -114.0043082, "stars": 2.5, "review_count": 3, "is_open": 1, "attributes": null, "categories": "Automotive, Auto Detailing, Car Stereo Installation, Electronics, Shopping", "hours": {"Monday": "9:0-18:0", "Tuesday": "9:0-18:0", "Wednesday": "9:0-18:0", "Thursday": "9:0-18:0", "Friday": "9:0-18:0"}}
{"business_id": "7sK9pYckh9CYPBYEZztmig", "name": "Kimmer", "address": "800 Veterans Boulevard NW", "city": "Airdrie", "state": "AB", "postal_code": "T4B 3G9", "latitude": 51.2999426916, "longitude": -114.0159196763, "stars": 3.0, "review_count": 3, "is_open": 1, "attributes": {"RestaurantsTakeOut": "False"}, "categories": "Shopping, Convenience Stores, Auto Detailing, Food, Automotive, Videos & Video Game Rental, Car Wash, Books, Mags, Music & Video", "hours": null}
{"business_id": "M-npfYXNr025JWPnkgGkWg", "name": "Pauls Pizza Steakhouse & Lounge", "address": "528 2nd Avenue SE", "city": "Airdrie", "state": "AB", "postal_code": "T4B 1S2", "latitude": 51.2901919, "longitude": -114.0028105, "stars": 3.5, "review_count": 30, "is_open": 1, "attributes": {"RestaurantsReservations": "True", "Ambience": "{'romantic': False, 'intimate': False, 'classy': False, 'hipster': False, 'divey': False, 'touristy': False, 'trendy': False, 'upscale': False, 'casual': False}", "GoodForKids": "True", "NoiseLevel": "u'average'", "Alcohol": "u'full_bar'", "RestaurantsDelivery": "True", "RestaurantsAttire": "u'casual'", "RestaurantsGoodForGroups": "True", "BikeParking": "True", "RestaurantsTakeOut": "True", "DogsAllowed": "False", "OutdoorSeating": "True", "WiFi": "'free'", "RestaurantsTableService": "True", "GoodForMeal": "{'dessert': False, 'latenight': False, 'lunch': False, 'dinner': False, 'brunch': False, 'breakfast': False}", "RestaurantsPriceRange2": "2", "Caters": "True", "WheelchairAccessible": "True", "HasTV": "True", "BusinessParking": "{'garage': False, 'street': True, 'validated': False, 'lot': False, 'valet': False}"}, "categories": "Italian, Pizza, Restaurants, Nightlife, Sports Wear, Sporting Goods, Fashion, Shopping, Steakhouses, Bars, Sports Bars", "hours": {"Monday": "11:0-0:0", "Tuesday": "11:0-0:0", "Wednesday": "11:0-0:0", "Thursday": "11:0-0:0", "Friday": "11:0-2:0", "Saturday": "10:0-2:0", "Sunday": "10:0-0:0"}}
{"business_id": "KSG_O8B6WmQ666YSbscVTg", "name": "Thai Charm Eatery", "address": "800 Yankee Valley Boulevard SW, Unit 505", "city": "Airdrie", "state": "AB", "postal_code": "T4B 3Y2", "latitude": 51.2714228537, "longitude": -114.0258327264, "stars": 3.5, "review_count": 16, "is_open": 1, "attributes": {"RestaurantsPriceRange2": "1", "Ambience": "{'romantic': False, 'intimate': False, 'classy': False, 'hipster': False, 'divey': False, 'touristy': False, 'trendy': False, 'upscale': False, 'casual': False}", "Alcohol": "u'full_bar'", "RestaurantsGoodForGroups": "True", "RestaurantsDelivery": "False", "RestaurantsReservations": "True", "RestaurantsAttire": "u'casual'", "RestaurantsTableService": "True", "BusinessParking": "{'garage': False, 'street': False, 'validated': False, 'lot': False, 'valet': False}", "HasTV": "False", "BikeParking": "False", "GoodForMeal": "{'dessert': False, 'latenight': False, 'lunch': False, 'dinner': False, 'brunch': False, 'breakfast': False}", "NoiseLevel": "u'average'", "RestaurantsTakeOut": "True", "GoodForKids": "True", "OutdoorSeating": "False", "WiFi": "'no'"}, "categories": "Restaurants, Thai", "hours": {"Tuesday": "17:0-21:30", "Wednesday": "17:0-21:30", "Thursday": "17:0-21:30", "Friday": "17:0-22:0", "Saturday": "16:30-22:0", "Sunday": "16:30-21:0"}}
{"business_id": "iqb50Hp69wd5uKdjSubclA", "name": "Killarney's Irish Pub / Restaurant", "address": "705 Main Street, Suite 100", "city": "Airdrie", "state": "AB", "postal_code": "T4B 3M2", "latitude": 51.2868849, "longitude": -114.0128711, "stars": 2.5, "review_count": 5, "is_open": 0, "attributes": {"BusinessParking": "{'garage': False, 'street': False, 'validated': False, 'lot': True, 'valet': False}", "Caters": "True", "NoiseLevel": "u'average'", "WiFi": "u'no'", "Ambience": "{'romantic': False, 'intimate': False, 'classy': False, 'hipster': False, 'touristy': False, 'trendy': False, 'upscale': False, 'casual': True}", "HasTV": "True", "RestaurantsGoodForGroups": "True", "RestaurantsReservations": "True", "RestaurantsAttire": "u'casual'", "OutdoorSeating": "True", "RestaurantsTakeOut": "True", "RestaurantsPriceRange2": "2", "Alcohol": "u'full_bar'", "GoodForKids": "False"}, "categories": "Restaurants, Nightlife, Bars, Irish", "hours": null}
{"business_id": "HgzuEvibywyL12YDRlblzw", "name": "Airdrie Registry", "address": "128 Edmonton Trail NE", "city": "Airdrie", "state": "AB", "postal_code": "T4B 1S1", "latitude": 51.292298192, "longitude": -114.0010226565, "stars": 3.0, "review_count": 4, "is_open": 1, "attributes": null, "categories": "Public Services & Government, Departments of Motor Vehicles", "hours": {"Monday": "8:0-18:0", "Tuesday": "8:0-18:0", "Wednesday": "8:0-18:0", "Thursday": "8:0-18:0", "Friday": "8:0-18:0", "Saturday": "9:0-15:0"}}
{"business_id": "ZA7i60EEETqW7Ffz8cbXgA", "name": "EggsOasis", "address": "160 -2797 Main Street SW", "city": "Airdrie", "state": "AB", "postal_code": "T4B 3G2", "latitude": 51.2643291767, "longitude": -114.0066418262, "stars": 3.0, "review_count": 16, "is_open": 1, "attributes": {"Caters": "False", "RestaurantsAttire": "u'casual'", "WiFi": "u'free'", "OutdoorSeating": "True", "BusinessParking": "{'garage': False, 'street': False, 'validated': False, 'lot': False, 'valet': False}", "HasTV": "False", "BikeParking": "True", "RestaurantsGoodForGroups": "True", "RestaurantsPriceRange2": "2", "Ambience": "{'romantic': False, 'intimate': False, 'classy': False, 'hipster': False, 'divey': False, 'touristy': False, 'trendy': False, 'upscale': False, 'casual': False}", "RestaurantsReservations": "False", "RestaurantsDelivery": "False", "NoiseLevel": "u'loud'", "RestaurantsTakeOut": "True", "GoodForKids": "True"}, "categories": "Breakfast & Brunch, Restaurants, Sandwiches, Creperies", "hours": {"Monday": "6:0-15:0", "Tuesday": "6:0-15:0", "Wednesday": "6:0-15:0", "Thursday": "6:0-15:0", "Friday": "6:0-15:0", "Saturday": "6:0-15:0", "Sunday": "6:0-15:0"}}
{"business_id": "h1KbSbgr3_oijV6xHXngpw", "name": "Airdrie Wok", "address": "121 Main Street", "city": "Airdrie", "state": "AB", "postal_code": "T4B 0P8", "latitude": 51.2912338332, "longitude": -114.0146370605, "stars": 3.5, "review_count": 8, "is_open": 1, "attributes": {"GoodForKids": "True", "RestaurantsTakeOut": "True", "RestaurantsReservations": "True", "HasTV": "False", "RestaurantsAttire": "'casual'", "RestaurantsGoodForGroups": "True", "RestaurantsPriceRange2": "2", "Ambience": "{'touristy': False, 'hipster': False, 'romantic': False, 'intimate': False, 'trendy': False, 'upscale': False, 'classy': False, 'casual': False}", "GoodForMeal": "{'dessert': False, 'latenight': False, 'lunch': False, 'dinner': False, 'brunch': False, 'breakfast': False}"}, "categories": "Buffets, Asian Fusion, Chinese, Restaurants", "hours": {"Monday": "11:0-21:0", "Tuesday": "11:0-21:0", "Wednesday": "11:0-21:0", "Thursday": "11:0-21:0", "Friday": "11:0-22:0", "Saturday": "11:0-22:0", "Sunday": "14:0-21:0"}}
{"business_id": "aSQW_zFuT54yyLGQWtKo1g", "name": "Boston Pizza", "address": "106 Sierra Springs Drive SE", "city": "Airdrie", "state": "AB", "postal_code": "T4B 3G6", "latitude": 51.2699538459, "longitude": -114.0036139528, "stars": 2.0, "review_count": 22, "is_open": 1, "attributes": {"Alcohol": "u'full_bar'", "HasTV": "True", "RestaurantsPriceRange2": "2", "RestaurantsAttire": "u'casual'", "WiFi": "u'free'", "RestaurantsDelivery": "True", "NoiseLevel": "u'very_loud'", "RestaurantsGoodForGroups": "True", "RestaurantsTakeOut": "True", "GoodForKids": "True", "BikeParking": "True", "RestaurantsReservations": "True", "Caters": "True", "OutdoorSeating": "True", "Ambience": "{'romantic': False, 'intimate': False, 'classy': False, 'hipster': False, 'divey': False, 'touristy': False, 'trendy': False, 'upscale': False, 'casual': False}", "BusinessParking": "{'garage': False, 'street': False, 'validated': False, 'lot': True, 'valet': False}"}, "categories": "Bars, Restaurants, Sports Bars, Pizza, Italian, Nightlife", "hours": {"Monday": "11:0-1:0", "Tuesday": "11:0-1:0", "Wednesday": "11:0-1:0", "Thursday": "11:0-1:0", "Friday": "11:0-2:0", "Saturday": "11:0-2:0", "Sunday": "11:0-0:0"}}
{"business_id": "SKgLebb_6lQB7H6alepOqg", "name": "Nails Bar", "address": "6-409 1st Avenue NW", "city": "Airdrie", "state": "AB", "postal_code": "T4B 3E2", "latitude": 51.2925406812, "longitude": -114.0198274702, "stars": 4.5, "review_count": 4, "is_open": 1, "attributes": {"RestaurantsPriceRange2": "2", "ByAppointmentOnly": "False"}, "categories": "Beauty & Spas, Nail Salons", "hours": {"Monday": "10:0-19:0", "Tuesday": "10:0-19:0", "Wednesday": "10:0-19:0", "Thursday": "10:0-19:0", "Friday": "10:0-19:0", "Saturday": "10:0-18:0", "Sunday": "11:0-17:0"}}
{"business_id": "XgGutRRtubnKdJLv4Xqaug", "name": "Pita Basket", "address": "109-30 Market Boulevard SE", "city": "Airdrie", "state": "AB", "postal_code": "T4B 2A2", "latitude": 51.2685906, "longitude": -113.9928939, "stars": 4.5, "review_count": 14, "is_open": 1, "attributes": {"RestaurantsTakeOut": "True", "WiFi": "u'free'", "GoodForKids": "True", "BikeParking": "True", "HasTV": "True", "GoodForMeal": "{'dessert': False, 'latenight': False, 'lunch': False, 'dinner': False, 'brunch': False, 'breakfast': False}", "RestaurantsAttire": "u'casual'", "OutdoorSeating": "False", "RestaurantsPriceRange2": "1", "RestaurantsDelivery": "True", "RestaurantsGoodForGroups": "True", "RestaurantsReservations": "False"}, "categories": "Middle Eastern, Lebanese, Restaurants", "hours": {"Monday": "11:0-20:0", "Tuesday": "11:0-20:0", "Wednesday": "11:0-20:0", "Thursday": "11:0-21:0", "Friday": "11:0-21:0", "Saturday": "11:0-21:0", "Sunday": "11:0-20:0"}}
{"business_id": "-sFAfeAk2xHKztXhAiTUSw", "name": "Top Nails", "address": "2700 Main St SE", "city": "Airdrie", "state": "AB", "postal_code": "T4B 2Y1", "latitude": 51.2690709, "longitude": -114.0060612, "stars": 4.5, "review_count": 6, "is_open": 1, "attributes": {"ByAppointmentOnly": "True", "RestaurantsPriceRange2": "2", "BikeParking": "True", "BusinessParking": "{'garage': False, 'street': False, 'validated': False, 'lot': False, 'valet': False}"}, "categories": "Beauty & Spas, Nail Salons", "hours": {"Monday": "10:0-19:0", "Tuesday": "10:0-19:0", "Wednesday": "7:0-19:0", "Thursday": "10:0-19:0", "Friday": "10:0-19:0", "Saturday": "10:0-18:0", "Sunday": "10:0-18:0"}}
{"business_id": "TEHEM0jRpYFFdYQJn0NZEw", "name": "Love Your Pet", "address": "2002 Luxstone Blvd", "city": "Airdrie", "state": "AB", "postal_code": "T4B 0A2", "latitude": 51.2917005, "longitude": -114.0143635, "stars": 2.0, "review_count": 4, "is_open": 1, "attributes": null, "categories": "Pet Services, Pets", "hours": {"Monday": "9:0-17:0", "Tuesday": "9:0-17:0", "Wednesday": "9:0-17:0", "Thursday": "9:0-17:0", "Friday": "9:0-17:0", "Saturday": "9:0-17:0", "Sunday": "9:0-17:0"}}
{"business_id": "6wtgrBtymSYVodaZoJMT4Q", "name": "Pizza 73", "address": "960 Yankee Valley Boulevard SE", "city": "Airdrie", "state": "AB", "postal_code": "T4A 2E4", "latitude": 51.2720031, "longitude": -113.9926433, "stars": 2.0, "review_count": 4, "is_open": 1, "attributes": {"RestaurantsGoodForGroups": "True", "OutdoorSeating": "False", "Ambience": "{'romantic': False, 'intimate': False, 'classy': False, 'hipster': False, 'touristy': False, 'trendy': False, 'upscale': False, 'casual': False}", "RestaurantsPriceRange2": "2", "RestaurantsDelivery": "True", "RestaurantsAttire": "u'casual'", "RestaurantsTakeOut": "True", "Caters": "True", "GoodForKids": "True", "RestaurantsReservations": "False", "Alcohol": "u'none'", "BusinessParking": "None"}, "categories": "Restaurants, Pizza", "hours": {"Monday": "11:0-0:0", "Tuesday": "11:0-0:0", "Wednesday": "11:0-0:0", "Thursday": "11:0-0:0", "Friday": "11:0-3:0", "Saturday": "11:0-3:0", "Sunday": "11:0-0:0"}}
{"business_id": "NnqSq_t2Fb6UrJefp_ELYQ", "name": "Rico's In the Village", "address": "136 1 Avenue NE", "city": "Airdrie", "state": "AB", "postal_code": "T4B 0R4", "latitude": 51.2928593, "longitude": -114.0114023, "stars": 4.5, "review_count": 6, "is_open": 0, "attributes": {"Caters": "False", "RestaurantsPriceRange2": "3", "OutdoorSeating": "True", "RestaurantsDelivery": "False", "BusinessParking": "{'garage': False, 'street': False, 'validated': False, 'lot': True, 'valet': False}", "NoiseLevel": "u'quiet'", "HasTV": "False", "Ambience": "{'romantic': False, 'intimate': False, 'classy': False, 'upscale': False, 'touristy': False, 'trendy': False, 'hipster': False, 'casual': False}", "RestaurantsGoodForGroups": "True", "RestaurantsReservations": "True"}, "categories": "Restaurants, Spanish", "hours": null}
{"business_id": "a91uOoAgbgVkX3Sx7hkEtA", "name": "A Perfect Pizza", "address": "2903 Kingsview Boulevard SE, Suite 207", "city": "Airdrie", "state": "AB", "postal_code": "T4A", "latitude": 51.2660977, "longitude": -113.993379, "stars": 2.0, "review_count": 7, "is_open": 1, "attributes": {"RestaurantsPriceRange2": "2", "RestaurantsAttire": "u'casual'", "OutdoorSeating": "False", "RestaurantsDelivery": "True"}, "categories": "Restaurants, Pizza", "hours": null}
{"business_id": "Cx7GAxu7_1d6O5AIEVNl8g", "name": "Woodside Golf Course", "address": "525 Woodside Drive NW", "city": "Airdrie", "state": "AB", "postal_code": "T4B 2C6", "latitude": 51.2965919, "longitude": -114.035382, "stars": 2.0, "review_count": 3, "is_open": 1, "attributes": {"GoodForKids": "True", "BusinessParking": "{'garage': False, 'street': False, 'validated': False, 'lot': False, 'valet': False}"}, "categories": "Fitness & Instruction, Active Life, Amateur Sports Teams, Shopping, Golf, Sporting Goods", "hours": {"Monday": "7:0-22:0", "Tuesday": "7:0-22:0", "Wednesday": "7:0-22:0", "Thursday": "7:0-22:0", "Friday": "7:0-22:0", "Saturday": "7:0-22:0", "Sunday": "7:0-22:0"}}
{"business_id": "dj0KrXqeEntYlSrnOpZtMw", "name": "JPR Moving Services", "address": "", "city": "Airdrie", "state": "AB", "postal_code": "", "latitude": 51.2917005, "longitude": -114.0143635, "stars": 1.0, "review_count": 3, "is_open": 1, "attributes": {"ByAppointmentOnly": "False"}, "categories": "Movers, Home Services", "hours": {"Monday": "8:0-22:0", "Tuesday": "8:0-22:0", "Wednesday": "8:0-22:0", "Thursday": "8:0-22:0", "Friday": "8:0-22:0", "Saturday": "12:0-16:0"}}
{"business_id": "YP15_oLen6wu-pBpMbWQhw", "name": "The Hair Lounge", "address": "113 1st Street NW", "city": "Airdrie", "state": "AB", "postal_code": "T4B 0R3", "latitude": 51.2918355, "longitude": -114.0154523, "stars": 4.0, "review_count": 8, "is_open": 1, "attributes": {"BikeParking": "True", "GoodForKids": "True", "ByAppointmentOnly": "True", "BusinessParking": "{'garage': False, 'street': False, 'validated': False, 'lot': False, 'valet': False}", "RestaurantsPriceRange2": "2"}, "categories": "Beauty & Spas, Hair Salons", "hours": {"Monday": "9:0-21:0", "Tuesday": "9:0-21:0", "Wednesday": "10:0-21:0", "Thursday": "9:0-21:0", "Friday": "10:0-17:0", "Saturday": "10:0-15:0", "Sunday": "0:30-0:45"}}
{"business_id": "BK45aix379kwl0m6cnf5-g", "name": "Doctors Plus", "address": "310-505 Main Street", "city": "Airdrie", "state": "AB", "postal_code": "T4B 3K3", "latitude": 51.2886495265, "longitude": -114.0146436454, "stars": 2.5, "review_count": 3, "is_open": 1, "attributes": null, "categories": "Health & Medical, Doctors, Family Practice", "hours": null}
{"business_id": "gGx3N9KtHabOlPET-mIbhA", "name": "The Chopped Leaf - Airdrie", "address": "35 Mackenzie Way SW, Suite 4101", "city": "Airdrie", "state": "AB", "postal_code": "T4B 0V7", "latitude": 51.2921361596, "longitude": -114.0246898662, "stars": 4.0, "review_count": 12, "is_open": 1, "attributes": {"RestaurantsAttire": "'casual'", "WheelchairAccessible": "True", "BusinessParking": "{'garage': False, 'street': False, 'validated': False, 'lot': True, 'valet': False}", "OutdoorSeating": "False", "GoodForMeal": "{'dessert': False, 'latenight': False, 'lunch': False, 'dinner': False, 'brunch': False, 'breakfast': False}", "DriveThru": "False", "HasTV": "True", "GoodForKids": "True", "RestaurantsReservations": "False", "WiFi": "'free'", "Alcohol": "'none'", "RestaurantsDelivery": "False", "RestaurantsTakeOut": "True", "BikeParking": "True", "Caters": "True", "Ambience": "{'romantic': False, 'intimate': False, 'classy': False, 'hipster': False, 'divey': False, 'touristy': False, 'trendy': False, 'upscale': False, 'casual': False}", "NoiseLevel": "'average'", "RestaurantsGoodForGroups": "True", "RestaurantsPriceRange2": "2", "RestaurantsTableService": "False"}, "categories": "Restaurants, Salad, Soup, Fast Food", "hours": {"Monday": "10:0-20:0", "Tuesday": "10:0-20:0", "Wednesday": "10:0-20:0", "Thursday": "10:0-20:0", "Friday": "10:0-20:0", "Saturday": "10:0-20:0", "Sunday": "11:0-19:0"}}
{"business_id": "DjlajQOP1hQ4HW6m1I_9Aw", "name": "GoodLife Fitness", "address": "303-505 Main Street SW", "city": "Airdrie", "state": "AB", "postal_code": "T4B 3K3", "latitude": 51.2900666, "longitude": -114.013432, "stars": 1.5, "review_count": 3, "is_open": 1, "attributes": null, "categories": "Gyms, Active Life, Trainers, Fitness & Instruction, Sports Clubs", "hours": {"Monday": "0:0-0:0", "Tuesday": "0:0-0:0", "Wednesday": "0:0-0:0", "Thursday": "0:0-0:0", "Friday": "0:0-0:0", "Saturday": "0:0-0:0", "Sunday": "0:0-0:0"}}
{"business_id": "hzmbGy7DES7l6ccfEVOgKg", "name": "Sass Couture Salon & Sacred Haven Boutique", "address": "9-125 Main Street NW", "city": "Airdrie", "state": "AB", "postal_code": "T4B 0P7", "latitude": 51.2922215149, "longitude": -114.0137423098, "stars": 4.0, "review_count": 3, "is_open": 1, "attributes": {"RestaurantsPriceRange2": "2", "BikeParking": "True", "ByAppointmentOnly": "True", "BusinessParking": "{'garage': False, 'street': True, 'validated': False, 'lot': True, 'valet': False}"}, "categories": "Reiki, Massage, Spiritual Shop, Makeup Artists, Health & Medical, Shopping, Blow Dry/Out Services, Beauty & Spas, Cosmetics & Beauty Supply, Eyelash Service, Hair Salons", "hours": {"Monday": "0:0-0:0", "Tuesday": "11:0-16:0", "Wednesday": "10:0-20:0", "Thursday": "11:0-16:0", "Friday": "10:0-17:0"}}
{"business_id": "LEazJdeGgkv36UcdilTuJQ", "name": "Taco Time", "address": "2700 Main Street S, Unit 500", "city": "Airdrie", "state": "AB", "postal_code": "T4B 2V1", "latitude": 51.269051, "longitude": -114.006072, "stars": 4.0, "review_count": 6, "is_open": 1, "attributes": {"GoodForKids": "True", "BikeParking": "True", "RestaurantsReservations": "False", "Ambience": "{'touristy': False, 'hipster': False, 'romantic': False, 'intimate': False, 'trendy': False, 'upscale': False, 'classy': False, 'casual': False}", "OutdoorSeating": "False", "HasTV": "False", "Alcohol": "u'none'", "RestaurantsPriceRange2": "1", "RestaurantsAttire": "u'casual'", "RestaurantsTakeOut": "True", "RestaurantsGoodForGroups": "True"}, "categories": "Mexican, Restaurants, Fast Food", "hours": {"Monday": "10:0-21:0", "Tuesday": "10:0-21:0", "Wednesday": "10:0-21:0", "Thursday": "10:0-21:0", "Friday": "10:0-21:0", "Saturday": "10:0-21:0", "Sunday": "11:0-21:0"}}
{"business_id": "X0HXRnDOu48gicatM_seog", "name": "Tuba", "address": "960 Yankee Valley Boulevard SE", "city": "Airdrie", "state": "AB", "postal_code": "T4A 2E4", "latitude": 51.2710541, "longitude": -113.9925649, "stars": 4.5, "review_count": 4, "is_open": 0, "attributes": {"BikeParking": "True", "BusinessParking": "{'garage': False, 'street': False, 'validated': False, 'lot': False, 'valet': False}", "RestaurantsPriceRange2": "2"}, "categories": "Donairs, Food", "hours": {"Monday": "9:0-21:0", "Tuesday": "9:0-21:0", "Wednesday": "9:0-21:0", "Thursday": "9:0-21:0", "Friday": "9:0-0:0", "Saturday": "10:0-0:0", "Sunday": "10:0-18:0"}}
{"business_id": "sDefNkOYhRZJDmH03U5O9A", "name": "Hayloft Restaurant", "address": "5101-403 Mackenzie Way SW", "city": "Airdrie", "state": "AB", "postal_code": "T4B 0V7", "latitude": 51.2890344583, "longitude": -114.0247674418, "stars": 4.0, "review_count": 25, "is_open": 1, "attributes": {"BikeParking": "True", "RestaurantsReservations": "True", "GoodForMeal": "{'dessert': False, 'latenight': False, 'lunch': False, 'dinner': False, 'brunch': False, 'breakfast': False}", "RestaurantsPriceRange2": "2", "Ambience": "{'romantic': False, 'intimate': False, 'classy': False, 'hipster': False, 'divey': False, 'touristy': False, 'trendy': False, 'upscale': False, 'casual': False}", "OutdoorSeating": "False", "HasTV": "False", "RestaurantsTableService": "True", "BusinessParking": "{'garage': False, 'street': False, 'validated': False, 'lot': False, 'valet': False}", "GoodForKids": "True", "RestaurantsAttire": "'casual'", "RestaurantsGoodForGroups": "True", "RestaurantsDelivery": "False", "NoiseLevel": "u'average'", "RestaurantsTakeOut": "False"}, "categories": "Food, American (Traditional), Diners, Local Flavor, Breakfast & Brunch, Sandwiches, Restaurants, Desserts", "hours": {"Tuesday": "17:0-22:0", "Wednesday": "17:0-22:0", "Thursday": "17:0-22:0", "Friday": "17:0-22:0", "Saturday": "17:0-22:0", "Sunday": "17:0-22:0"}}
{"business_id": "zBflb6CH-ok_8k7BcDfyhg", "name": "Hampton Inn & Suites by Hilton Airdrie", "address": "52 E Lake Avenue NE", "city": "Airdrie", "state": "AB", "postal_code": "T4A 2H1", "latitude": 51.296012, "longitude": -113.996556, "stars": 4.0, "review_count": 4, "is_open": 1, "attributes": {"WiFi": "'free'", "RestaurantsPriceRange2": "2"}, "categories": "Hotels & Travel, Hotels, Event Planning & Services", "hours": null}
{"business_id": "VRkMPX3vEYt1AMto3CcR6w", "name": "Costa Vida Fresh Mexican Grill", "address": "705 Main St South", "city": "Airdrie", "state": "AB", "postal_code": "T4B 2B8", "latitude": 51.2855861411, "longitude": -114.0138073473, "stars": 4.0, "review_count": 7, "is_open": 1, "attributes": {"RestaurantsReservations": "False", "RestaurantsTakeOut": "True", "BikeParking": "True", "OutdoorSeating": "False", "BusinessParking": "{'garage': False, 'street': False, 'validated': False, 'lot': False, 'valet': False}", "WiFi": "'no'", "GoodForKids": "True", "RestaurantsPriceRange2": "2", "RestaurantsGoodForGroups": "True"}, "categories": "Restaurants, Coffee & Tea, Food, Tex-Mex, Mexican", "hours": {"Monday": "11:0-21:0", "Tuesday": "11:0-21:0", "Wednesday": "11:0-21:0", "Thursday": "11:0-21:0", "Friday": "11:0-21:0", "Saturday": "11:0-20:0", "Sunday": "11:0-21:0"}}
{"business_id": "MxDkRNhmcnauwYsrAVxfNA", "name": "Ripe Tomato", "address": "401 Coopers Drive South West, Ste 301", "city": "Airdrie", "state": "AB", "postal_code": "T4B 0C8", "latitude": 51.260846, "longitude": -114.012743, "stars": 3.0, "review_count": 3, "is_open": 1, "attributes": null, "categories": "Italian, Restaurants, Pizza", "hours": {"Monday": "11:0-21:0", "Tuesday": "11:0-21:0", "Wednesday": "11:0-21:0", "Thursday": "11:0-21:0", "Friday": "11:0-22:0", "Saturday": "11:0-21:0", "Sunday": "11:0-21:0"}}
{"business_id": "D-sPgfhMK3L4JGiE3Qf3lw", "name": "Lifemark", "address": "206-836 1st Avenue NW", "city": "Airdrie", "state": "AB", "postal_code": "T4B 0V2", "latitude": 51.2926387, "longitude": -114.025651, "stars": 1.0, "review_count": 3, "is_open": 1, "attributes": {"ByAppointmentOnly": "True"}, "categories": "Occupational Therapy, Physical Therapy, Acupuncture, Massage Therapy, Health & Medical", "hours": {"Monday": "7:0-19:0", "Tuesday": "7:0-19:0", "Wednesday": "7:0-19:0", "Thursday": "7:0-19:0", "Friday": "7:0-19:0", "Saturday": "9:0-12:0"}}
{"business_id": "TSpibPgGew7XD__errnftw", "name": "W & B Automotive Repair", "address": "524 Centre Avenue E", "city": "Airdrie", "state": "AB", "postal_code": "T4B 1P9", "latitude": 51.29139, "longitude": -114.002552, "stars": 5.0, "review_count": 4, "is_open": 1, "attributes": null, "categories": "Tires, Automotive, Auto Repair", "hours": {"Monday": "9:0-17:0", "Tuesday": "9:0-17:0", "Wednesday": "9:0-17:0", "Thursday": "9:0-17:0", "Friday": "9:0-17:0"}}
{"business_id": "Olr2l5Gl1GG5R2fEracfoQ", "name": "Giddy-Up Western Wear", "address": "99 East Lake Cres NE", "city": "Airdrie", "state": "AB", "postal_code": "T4A 2H6", "latitude": 51.2916865, "longitude": -113.9981914, "stars": 2.5, "review_count": 3, "is_open": 1, "attributes": {"RestaurantsPriceRange2": "2", "BusinessParking": "{'garage': False, 'street': False, 'validated': False, 'lot': False, 'valet': False}"}, "categories": "Fashion, Shopping, Men's Clothing", "hours": null}
{"business_id": "W25FqUt3DjrJkdnMPNdXSQ", "name": "Mr. Shawarma", "address": "400 Main Street NE, Suite 115", "city": "Airdrie", "state": "AB", "postal_code": "T4B 2N1", "latitude": 51.2883725, "longitude": -114.0122421, "stars": 4.0, "review_count": 4, "is_open": 1, "attributes": {"RestaurantsDelivery": "True", "GoodForKids": "True", "GoodForMeal": "{'dessert': False, 'latenight': False, 'lunch': False, 'dinner': False, 'brunch': False, 'breakfast': False}", "OutdoorSeating": "False", "NoiseLevel": "u'average'", "RestaurantsPriceRange2": "1", "Caters": "True", "HasTV": "True", "RestaurantsTableService": "False", "BusinessParking": "{'garage': False, 'street': False, 'validated': False, 'lot': False, 'valet': False}", "RestaurantsTakeOut": "True", "RestaurantsAttire": "u'casual'", "RestaurantsGoodForGroups": "True"}, "categories": "Restaurants, Imported Food, Ethnic Food, Food, Specialty Food, Mediterranean, Lebanese, Middle Eastern", "hours": {"Monday": "11:0-21:0", "Tuesday": "11:0-21:0", "Wednesday": "11:0-21:0", "Thursday": "11:0-21:0", "Friday": "11:0-21:0", "Saturday": "11:0-21:0"}}
{"business_id": "rc0X8RD-zgm_qEmVNZOj9Q", "name": "Abe's Restaurant", "address": "30 Market Boulevard SE, Suite 101", "city": "Airdrie", "state": "AB", "postal_code": "T4A 0V4", "latitude": 51.268672, "longitude": -113.996508, "stars": 4.0, "review_count": 35, "is_open": 1, "attributes": {"DriveThru": "False", "HasTV": "False", "GoodForKids": "True", "Caters": "False", "RestaurantsAttire": "u'casual'", "NoiseLevel": "u'average'", "RestaurantsTableService": "False", "WiFi": "'free'", "RestaurantsPriceRange2": "2", "RestaurantsTakeOut": "True", "GoodForMeal": "{'dessert': False, 'latenight': False, 'lunch': True, 'dinner': False, 'brunch': True, 'breakfast': False}", "RestaurantsGoodForGroups": "True", "BikeParking": "True", "RestaurantsReservations": "False", "BusinessParking": "{'garage': False, 'street': False, 'validated': False, 'lot': False, 'valet': False}", "OutdoorSeating": "False", "Ambience": "{'romantic': False, 'intimate': False, 'classy': False, 'hipster': False, 'divey': False, 'touristy': False, 'trendy': False, 'upscale': False, 'casual': False}", "RestaurantsDelivery": "False"}, "categories": "Restaurants, Burgers, Comfort Food, Coffee & Tea, Breakfast & Brunch, Diners, Food, Juice Bars & Smoothies, American (Traditional)", "hours": {"Monday": "11:0-20:0", "Tuesday": "11:0-20:0", "Wednesday": "11:0-20:0", "Thursday": "11:0-20:0", "Friday": "11:0-21:0", "Saturday": "9:0-21:0", "Sunday": "9:0-20:0"}}
{"business_id": "Pmny2A8CvzZYPep7tUtMOA", "name": "Chatters Salon Hair", "address": "105-2821 Main Street", "city": "Airdrie", "state": "AB", "postal_code": "T4B 3S6", "latitude": 51.263773, "longitude": -114.006167, "stars": 5.0, "review_count": 3, "is_open": 1, "attributes": {"GoodForKids": "True", "RestaurantsPriceRange2": "2", "BikeParking": "False", "ByAppointmentOnly": "True"}, "categories": "Hair Salons, Beauty & Spas, Shopping, Nail Salons, Cosmetics & Beauty Supply", "hours": {"Monday": "9:0-21:0", "Tuesday": "9:0-21:0", "Wednesday": "9:0-21:0", "Thursday": "9:0-21:0", "Friday": "9:0-21:0", "Saturday": "9:0-18:0", "Sunday": "11:0-17:0"}}
{"business_id": "auDLKJtjv3IkSdPCei5zTA", "name": "Shawarma Brothers", "address": "111 - 2002 Luxstone Boulevard SW", "city": "Airdrie", "state": "AB", "postal_code": "T4B 3K8", "latitude": 51.2713203, "longitude": -114.0180047, "stars": 4.5, "review_count": 10, "is_open": 0, "attributes": {"BikeParking": "True", "RestaurantsAttire": "'casual'", "RestaurantsTableService": "True", "GoodForMeal": "{'dessert': False, 'latenight': False, 'lunch': False, 'dinner': False, 'brunch': False, 'breakfast': False}", "RestaurantsGoodForGroups": "True", "BusinessParking": "{'garage': False, 'street': False, 'validated': False, 'lot': False, 'valet': False}", "RestaurantsTakeOut": "True", "DriveThru": "False", "OutdoorSeating": "False", "NoiseLevel": "'quiet'", "RestaurantsPriceRange2": "1", "Caters": "True", "WiFi": "'no'", "Ambience": "{'romantic': False, 'intimate': False, 'classy': False, 'hipster': False, 'divey': False, 'touristy': False, 'trendy': False, 'upscale': False, 'casual': True}", "GoodForKids": "True", "RestaurantsReservations": "False", "HasTV": "True"}, "categories": "Desserts, Middle Eastern, Mediterranean, Food, Salad, Lebanese, Restaurants, Fast Food", "hours": null}
{"business_id": "Xi_RPz2Kq1v7NiR7EKIVOQ", "name": "Peppercorns Restaurant", "address": "800 Yankee Valley Boulevard, Suite 501", "city": "Airdrie", "state": "AB", "postal_code": "T4B 2X3", "latitude": 51.2715840718, "longitude": -114.0260878483, "stars": 4.0, "review_count": 9, "is_open": 1, "attributes": {"RestaurantsDelivery": "False", "RestaurantsPriceRange2": "2", "RestaurantsAttire": "'casual'", "BikeParking": "True", "RestaurantsReservations": "True", "RestaurantsGoodForGroups": "True", "GoodForKids": "True", "RestaurantsTakeOut": "True"}, "categories": "American (Traditional), Restaurants", "hours": null}
{"business_id": "JibdCHoKTUV5NWBHX7yiwA", "name": "Racetrack Rv", "address": "181 East Lake Cresceny NE", "city": "Airdrie", "state": "AB", "postal_code": "T4A 2H7", "latitude": 51.2867, "longitude": -113.999056, "stars": 3.0, "review_count": 3, "is_open": 0, "attributes": null, "categories": "RV Dealers, Automotive", "hours": null}
{"business_id": "oT96NlaxshwHBedmJ4KQJQ", "name": "Pizza Hut", "address": "108 Edmonton Trail NE, Bay A", "city": "Airdrie", "state": "AB", "postal_code": "T4B 1R9", "latitude": 51.2916391, "longitude": -114.0008072, "stars": 1.0, "review_count": 3, "is_open": 1, "attributes": {"Alcohol": "u'none'"}, "categories": "Pizza, Italian, Chicken Wings, Restaurants, Food Delivery Services, Food", "hours": {"Monday": "11:0-23:0", "Tuesday": "11:0-23:0", "Wednesday": "11:0-23:0", "Thursday": "11:0-23:0", "Friday": "11:0-1:0", "Saturday": "11:0-1:0", "Sunday": "11:0-23:0"}}
{"business_id": "a20XFGzwbvXqgZzDEICilw", "name": "Iron Horse Park", "address": "820 Railway Gate", "city": "Airdrie", "state": "AB", "postal_code": "T4B 3C5", "latitude": 51.2863898521, "longitude": -114.0208575065, "stars": 5.0, "review_count": 3, "is_open": 1, "attributes": {"GoodForKids": "True"}, "categories": "Parks, Active Life, Local Flavor", "hours": {"Sunday": "11:0-16:0"}}
{"business_id": "Ja3oFp09rMTa6t8mOnejvQ", "name": "Cowboys Tap House And Grill", "address": "216 Edmonton Trail NE", "city": "Airdrie", "state": "AB", "postal_code": "T4B 1R9", "latitude": 51.2931352, "longitude": -114.0016701, "stars": 1.5, "review_count": 3, "is_open": 0, "attributes": {"RestaurantsGoodForGroups": "True", "RestaurantsDelivery": "False", "HasTV": "True", "NoiseLevel": "u'loud'", "BusinessParking": "{'garage': False, 'street': False, 'validated': False, 'lot': False, 'valet': False}", "RestaurantsReservations": "False", "GoodForKids": "False", "RestaurantsAttire": "u'casual'", "Ambience": "{'romantic': False, 'intimate': False, 'classy': False, 'hipster': False, 'touristy': False, 'trendy': False, 'upscale': False, 'casual': False}", "Alcohol": "u'full_bar'", "OutdoorSeating": "True"}, "categories": "Restaurants, Steakhouses", "hours": null}
{"business_id": "1clwAnBy6g-0f8cxawbmQA", "name": "Holiday Inn Express & Suites Airdrie-Calgary North", "address": "64 East Lake Avenue NE", "city": "Airdrie", "state": "AB", "postal_code": "T4A 2G8", "latitude": 51.295855, "longitude": -113.998026, "stars": 5.0, "review_count": 3, "is_open": 1, "attributes": {"RestaurantsPriceRange2": "2", "WiFi": "'free'"}, "categories": "Hotels & Travel, Hotels, Event Planning & Services, Venues & Event Spaces", "hours": {"Monday": "0:0-0:0", "Tuesday": "0:0-0:0", "Wednesday": "0:0-0:0", "Thursday": "0:0-0:0", "Friday": "0:0-0:0", "Saturday": "0:0-0:0", "Sunday": "0:0-0:0"}}
{"business_id": "imdRnCPMBl8DkKqzDo8lqQ", "name": "Harvey's", "address": "2860 Main St S", "city": "Airdrie", "state": "AB", "postal_code": "T4B 3G4", "latitude": 51.2641916438, "longitude": -114.003231412, "stars": 2.5, "review_count": 3, "is_open": 1, "attributes": null, "categories": "Restaurants, Fast Food, Burgers, American (Traditional)", "hours": {"Monday": "10:30-21:0", "Tuesday": "10:30-21:0", "Wednesday": "10:30-21:0", "Thursday": "10:30-21:0", "Friday": "10:30-21:0", "Saturday": "10:30-21:0", "Sunday": "11:0-21:0"}}
{"business_id": "f3eay8D8_28hejAhWLATRQ", "name": "First & Vine", "address": "136 1st  Avenue NE", "city": "Airdrie", "state": "AB", "postal_code": "T4B 0R4", "latitude": 51.2928718, "longitude": -114.0114151, "stars": 5.0, "review_count": 9, "is_open": 1, "attributes": {"WheelchairAccessible": "True", "NoiseLevel": "u'average'", "GoodForDancing": "False", "Music": "{'dj': False, 'background_music': False, 'no_music': False, 'jukebox': False, 'live': False, 'video': False, 'karaoke': False}", "Ambience": "{'touristy': False, 'hipster': False, 'romantic': False, 'intimate': False, 'trendy': False, 'upscale': False, 'classy': False, 'casual': False}", "OutdoorSeating": "True", "DogsAllowed": "False", "RestaurantsAttire": "u'casual'", "CoatCheck": "False", "RestaurantsDelivery": "False", "BikeParking": "False", "Smoking": "u'outdoor'", "RestaurantsTakeOut": "False", "RestaurantsGoodForGroups": "True", "HappyHour": "False", "Caters": "False", "RestaurantsReservations": "True", "WiFi": "u'no'", "Alcohol": "u'beer_and_wine'", "HasTV": "False", "RestaurantsTableService": "True", "BusinessParking": "{'garage': False, 'street': True, 'validated': False, 'lot': True, 'valet': False}"}, "categories": "Restaurants, Bars, Nightlife, Canadian (New), Wine Bars", "hours": {"Tuesday": "17:0-22:0", "Wednesday": "17:0-22:0", "Thursday": "17:0-22:0", "Friday": "17:0-23:0", "Saturday": "17:0-23:0", "Sunday": "11:0-17:0"}}
{"business_id": "iEbdqCkeCpo6YXrKIu-Byg", "name": "Perfect Home", "address": "150 2771 Main Street SW", "city": "Airdrie", "state": "AB", "postal_code": "T4B 3G3", "latitude": 51.2649204, "longitude": -114.0081178, "stars": 2.5, "review_count": 3, "is_open": 1, "attributes": null, "categories": "Home & Garden, Mattresses, Shopping, Furniture Stores, Rugs", "hours": {"Monday": "10:0-19:0", "Tuesday": "10:0-19:0", "Wednesday": "10:0-20:0", "Thursday": "10:0-20:0", "Friday": "10:0-20:0", "Saturday": "10:0-18:0", "Sunday": "11:0-17:0"}}
{"business_id": "zowCVyE7nHtU_iqlIKORBQ", "name": "Athena's Grill", "address": "104-532 1 Avenue NE", "city": "Airdrie", "state": "AB", "postal_code": "T4B 1R9", "latitude": 51.2929293, "longitude": -114.0131477, "stars": 3.0, "review_count": 5, "is_open": 1, "attributes": {"OutdoorSeating": "False", "GoodForKids": "True", "RestaurantsDelivery": "True", "WiFi": "u'no'", "NoiseLevel": "u'average'", "RestaurantsPriceRange2": "2", "HasTV": "False", "RestaurantsTakeOut": "True", "RestaurantsGoodForGroups": "True", "RestaurantsAttire": "u'casual'", "Alcohol": "u'full_bar'", "Ambience": "{'romantic': False, 'intimate': False, 'classy': False, 'hipster': False, 'touristy': False, 'trendy': False, 'upscale': False, 'casual': False}", "BusinessParking": "{'garage': False, 'street': False, 'validated': False, 'lot': False, 'valet': False}"}, "categories": "Greek, Breakfast & Brunch, Pizza, Restaurants", "hours": {"Monday": "10:0-21:30", "Tuesday": "10:0-21:30", "Wednesday": "10:0-21:30", "Thursday": "10:0-21:30", "Friday": "10:0-21:30", "Saturday": "10:0-21:30", "Sunday": "9:30-21:30"}}
{"business_id": "7eqf8AosgUVHXSmkwnQ6Og", "name": "Airdrie Chrysler Dodge Jeep Ram", "address": "139 East Lake Crescent NE", "city": "Airdrie", "state": "AB", "postal_code": "T4A 2H7", "latitude": 51.2898407, "longitude": -113.9989541, "stars": 2.5, "review_count": 3, "is_open": 1, "attributes": null, "categories": "Oil Change Stations, Automotive, Auto Repair, Car Dealers", "hours": {"Monday": "9:0-21:0", "Tuesday": "9:0-21:0", "Wednesday": "9:0-21:0", "Thursday": "9:0-21:0", "Friday": "9:0-18:0", "Saturday": "9:0-18:0"}}
{"business_id": "zHq_el0ieOY-FmzkxTgYWw", "name": "Cowboys Taphouse", "address": "216 Edmonton Trail NE", "city": "Airdrie", "state": "AB", "postal_code": "T4B 1R9", "latitude": 51.2938525, "longitude": -114.0011653, "stars": 3.0, "review_count": 5, "is_open": 1, "attributes": {"Alcohol": "u'full_bar'", "OutdoorSeating": "True", "HappyHour": "True", "WiFi": "u'free'", "CoatCheck": "False", "Smoking": "u'outdoor'", "Caters": "True", "HasTV": "True", "WheelchairAccessible": "True", "BikeParking": "True", "RestaurantsTakeOut": "True", "RestaurantsReservations": "True", "RestaurantsDelivery": "False", "RestaurantsTableService": "True", "DogsAllowed": "False"}, "categories": "American (Traditional), Burgers, Restaurants, Nightlife, Bars", "hours": {"Monday": "10:0-3:0", "Tuesday": "10:0-3:0", "Wednesday": "10:0-3:0", "Thursday": "10:0-3:0", "Friday": "10:0-3:0", "Saturday": "10:0-3:0", "Sunday": "10:0-3:0"}}
{"business_id": "_XUhnUEk07AiUdz3VLXU0Q", "name": "The Little Gym", "address": "505 Main Street, Unit 313", "city": "Airdrie", "state": "AB", "postal_code": "T4B 3K3", "latitude": 51.2883415, "longitude": -114.0156661, "stars": 5.0, "review_count": 3, "is_open": 1, "attributes": {"GoodForKids": "True"}, "categories": "Active Life, Recreation Centers", "hours": null}
{"business_id": "Xq4EkGqDyDG6Un0YY5vaVQ", "name": "Cena Tabella", "address": "1700 Market Street SE, Suite 113", "city": "Airdrie", "state": "AB", "postal_code": "T4A 0R8", "latitude": 51.2702952, "longitude": -113.997028, "stars": 3.0, "review_count": 6, "is_open": 0, "attributes": {"WiFi": "u'free'", "Alcohol": "u'beer_and_wine'", "RestaurantsTableService": "True", "HasTV": "False", "OutdoorSeating": "False", "BusinessParking": "{'garage': False, 'street': False, 'validated': False, 'lot': True, 'valet': False}", "BikeParking": "True", "Ambience": "{'touristy': False, 'hipster': False, 'romantic': False, 'intimate': False, 'trendy': False, 'upscale': False, 'classy': False, 'casual': False}", "Caters": "True", "RestaurantsGoodForGroups": "False", "GoodForKids": "True", "RestaurantsAttire": "'casual'", "WheelchairAccessible": "False", "RestaurantsDelivery": "True", "GoodForMeal": "{'dessert': False, 'latenight': False, 'lunch': False, 'dinner': False, 'brunch': False, 'breakfast': False}", "RestaurantsTakeOut": "True", "RestaurantsPriceRange2": "2", "DogsAllowed": "False", "RestaurantsReservations": "True"}, "categories": "Pizza, Italian, Restaurants", "hours": {"Monday": "16:30-20:30", "Tuesday": "16:30-20:30", "Wednesday": "16:30-20:30", "Thursday": "16:30-20:30", "Friday": "16:30-20:30", "Saturday": "16:30-20:30"}}
{"business_id": "4-_LnxbAjfn4a-PTNmsFiw", "name": "Airdrie Windshield & Glass", "address": "6-99 E Lake Crescent NE", "city": "Airdrie", "state": "AB", "postal_code": "T4A 2H6", "latitude": 51.291697, "longitude": -113.998816, "stars": 2.5, "review_count": 3, "is_open": 1, "attributes": null, "categories": "Windshield Installation & Repair, Glass & Mirrors, Automotive, Home Services, Auto Glass Services", "hours": {"Monday": "8:0-17:0", "Tuesday": "8:0-17:0", "Wednesday": "8:0-17:0", "Thursday": "8:0-17:0", "Friday": "8:0-17:0", "Saturday": "9:0-13:0"}}
{"business_id": "ax6PentCVOBmeWEcLSZnNg", "name": "Five Guys", "address": "100 Sierra Springs Drive", "city": "Airdrie", "state": "AB", "postal_code": "T4B 3G7", "latitude": 51.2669281672, "longitude": -114.0026505557, "stars": 3.5, "review_count": 19, "is_open": 1, "attributes": {"RestaurantsPriceRange2": "2", "Caters": "False", "RestaurantsReservations": "False", "WiFi": "u'no'", "Ambience": "{'romantic': False, 'intimate': False, 'classy': False, 'hipster': False, 'divey': False, 'touristy': False, 'trendy': False, 'upscale': False, 'casual': True}", "RestaurantsDelivery": "False", "BikeParking": "True", "RestaurantsGoodForGroups": "True", "OutdoorSeating": "False", "HasTV": "False", "BusinessParking": "{'garage': False, 'street': False, 'validated': False, 'lot': True, 'valet': False}", "RestaurantsAttire": "u'casual'", "RestaurantsTakeOut": "True", "Alcohol": "u'none'", "NoiseLevel": "u'average'", "GoodForKids": "True"}, "categories": "Restaurants, Burgers, Fast Food", "hours": {"Monday": "11:0-22:0", "Tuesday": "11:0-22:0", "Wednesday": "11:0-22:0", "Thursday": "11:0-22:0", "Friday": "11:0-22:0", "Saturday": "11:0-22:0", "Sunday": "11:0-22:0"}}
{"business_id": "D5wdB5TYHQ2-DitG0dPBIw", "name": "Save On Foods", "address": "1400 Market Street SE", "city": "Airdrie", "state": "AB", "postal_code": "T4A 0K9", "latitude": 51.2702318, "longitude": -113.9908645, "stars": 1.5, "review_count": 3, "is_open": 1, "attributes": {"RestaurantsTakeOut": "True", "BusinessParking": "{'garage': False, 'street': False, 'validated': False, 'lot': False, 'valet': False}"}, "categories": "Delicatessen, Pharmacy, Food, Health & Medical, Grocery", "hours": {"Monday": "7:0-23:0", "Tuesday": "7:0-23:0", "Wednesday": "7:0-23:0", "Thursday": "7:0-23:0", "Friday": "7:0-23:0", "Saturday": "7:0-23:0", "Sunday": "7:0-23:0"}}
{"business_id": "YnGf7asAct4nVyWbSQl8eA", "name": "Petite Saigon Vietnamese Restaurant", "address": "521 2 Avenue SE", "city": "Airdrie", "state": "AB", "postal_code": "T4B 2C2", "latitude": 51.2896751, "longitude": -114.0026541, "stars": 3.5, "review_count": 7, "is_open": 1, "attributes": {"BikeParking": "True", "RestaurantsTakeOut": "True", "NoiseLevel": "'quiet'", "BusinessParking": "{'garage': False, 'street': False, 'validated': False, 'lot': False, 'valet': False}", "Ambience": "{'touristy': False, 'hipster': False, 'romantic': False, 'intimate': False, 'trendy': False, 'upscale': False, 'classy': False, 'casual': True}", "Caters": "False", "OutdoorSeating": "False", "RestaurantsReservations": "True", "WiFi": "'no'", "RestaurantsPriceRange2": "2", "RestaurantsAttire": "u'casual'", "RestaurantsDelivery": "False", "RestaurantsTableService": "True", "HasTV": "False", "GoodForKids": "True", "RestaurantsGoodForGroups": "True", "Alcohol": "u'beer_and_wine'", "GoodForMeal": "{'dessert': False, 'latenight': False, 'lunch': True, 'dinner': False, 'brunch': False, 'breakfast': False}"}, "categories": "Restaurants, Vietnamese", "hours": null}
{"business_id": "FeL-o1iZOSt14k0e4aHUgA", "name": "Dandy Auto Marine RV", "address": "4 East Lake Avenue NE", "city": "Airdrie", "state": "AB", "postal_code": "T4A 2G8", "latitude": 51.2966203, "longitude": -113.9908658, "stars": 4.0, "review_count": 4, "is_open": 1, "attributes": null, "categories": "Automotive, Car Dealers, Auto Repair", "hours": {"Monday": "8:0-17:30", "Tuesday": "8:0-17:30", "Wednesday": "8:0-17:30", "Thursday": "8:0-17:30", "Friday": "8:0-17:30"}}
{"business_id": "wX7TUTwTv2iJPvw3npsgQA", "name": "Supercuts", "address": "304-960 Yankee Valley Blvd Se, Yankee Valley Shopping Centre", "city": "Airdrie", "state": "AB", "postal_code": "T4A 2E4", "latitude": 51.271717, "longitude": -113.99203, "stars": 4.0, "review_count": 4, "is_open": 1, "attributes": {"BusinessParking": "{'garage': False, 'street': False, 'validated': False, 'lot': False, 'valet': False}", "GoodForKids": "False", "RestaurantsPriceRange2": "2", "ByAppointmentOnly": "False"}, "categories": "Shopping, Beauty & Spas, Cosmetics & Beauty Supply, Hair Salons, Men's Hair Salons, Hair Stylists", "hours": {"Monday": "9:0-20:0", "Tuesday": "9:0-20:0", "Wednesday": "9:0-20:0", "Thursday": "9:0-20:0", "Friday": "9:0-20:0", "Saturday": "9:0-17:0", "Sunday": "11:0-17:0"}}
{"business_id": "yv0TBUUMIeuRCcLmRjm3wA", "name": "Silver Star Restaurant", "address": "1861 Meadowbrook Drive SE", "city": "Airdrie", "state": "AB", "postal_code": "T4A 1V3", "latitude": 51.2752648, "longitude": -113.9893009, "stars": 1.0, "review_count": 3, "is_open": 1, "attributes": {"RestaurantsPriceRange2": "3", "BusinessParking": "{'garage': False, 'street': False, 'validated': False, 'lot': False, 'valet': False}"}, "categories": "Ethnic Food, Specialty Food, Imported Food, Food", "hours": {"Monday": "11:0-22:0", "Tuesday": "16:0-22:0", "Wednesday": "11:0-22:0", "Thursday": "11:0-22:0", "Friday": "11:0-23:0", "Saturday": "16:0-23:0", "Sunday": "16:0-22:0"}}
{"business_id": "2UaP2PT4IWnCHU0dRi5SLw", "name": "Tires On The Run", "address": "", "city": "Airdrie", "state": "AB", "postal_code": "T4B", "latitude": 51.2919894739, "longitude": -114.0279706568, "stars": 5.0, "review_count": 3, "is_open": 1, "attributes": null, "categories": "Tires, Roadside Assistance, Automotive", "hours": {"Monday": "0:0-0:0", "Tuesday": "0:0-0:0", "Wednesday": "0:0-0:0", "Thursday": "0:0-0:0", "Friday": "0:0-0:0", "Saturday": "0:0-0:0"}}
{"business_id": "9vNVxunrEcQIZUke20xTWg", "name": "McDonald's", "address": "104 Edmonton Trail NE", "city": "Airdrie", "state": "AB", "postal_code": "T4B 1S2", "latitude": 51.291453, "longitude": -114.0016936, "stars": 2.5, "review_count": 3, "is_open": 1, "attributes": {"GoodForMeal": "{'dessert': False, 'latenight': False, 'lunch': False, 'dinner': False, 'brunch': False, 'breakfast': False}", "WiFi": "u'free'", "BusinessParking": "{'garage': False, 'street': False, 'validated': False, 'lot': False, 'valet': False}", "RestaurantsDelivery": "False", "NoiseLevel": "u'average'", "Alcohol": "u'none'", "RestaurantsPriceRange2": "1", "Caters": "False", "RestaurantsReservations": "False", "DriveThru": "True", "RestaurantsTakeOut": "True", "RestaurantsGoodForGroups": "True", "RestaurantsAttire": "u'casual'", "OutdoorSeating": "False", "HasTV": "True", "Ambience": "{'romantic': False, 'intimate': False, 'classy': False, 'upscale': False, 'touristy': False, 'trendy': False, 'casual': False}", "GoodForKids": "True"}, "categories": "Restaurants, Fast Food, Burgers", "hours": {"Monday": "0:0-0:0", "Tuesday": "0:0-0:0", "Wednesday": "0:0-0:0", "Thursday": "0:0-0:0", "Friday": "0:0-0:0", "Saturday": "0:0-0:0", "Sunday": "0:0-0:0"}}
{"business_id": "wruIBPsaz7orpgXe2UiE0g", "name": "Live Love Lashe!", "address": "200 Willowbrook Close NW", "city": "Airdrie", "state": "AB", "postal_code": "T4B 2J6", "latitude": 51.2949880122, "longitude": -114.0222930908, "stars": 5.0, "review_count": 4, "is_open": 1, "attributes": {"BikeParking": "True", "RestaurantsPriceRange2": "2", "ByAppointmentOnly": "True", "BusinessParking": "{'garage': False, 'street': True, 'validated': False, 'lot': True, 'valet': False}"}, "categories": "Hair Salons, Skin Care, Permanent Makeup, Makeup Artists, Eyelash Service, Beauty & Spas, Tattoo", "hours": {"Monday": "11:0-14:0", "Tuesday": "14:0-20:0", "Wednesday": "9:0-17:0", "Thursday": "9:0-20:0", "Friday": "9:0-12:0", "Saturday": "9:0-15:30"}}
{"business_id": "h2SA2bn6iBmxoe4W8iCYEg", "name": "Chez Cora", "address": "505 Main Street SW", "city": "Airdrie", "state": "AB", "postal_code": "T4B 3K3", "latitude": 51.2886355, "longitude": -114.0145304, "stars": 3.0, "review_count": 16, "is_open": 1, "attributes": {"NoiseLevel": "u'average'", "RestaurantsDelivery": "False", "BikeParking": "False", "RestaurantsPriceRange2": "2", "RestaurantsAttire": "u'casual'", "Caters": "False", "RestaurantsTakeOut": "False", "OutdoorSeating": "False", "RestaurantsReservations": "False", "BusinessParking": "{'garage': False, 'street': False, 'validated': False, 'lot': False, 'valet': False}", "Ambience": "{'romantic': False, 'intimate': False, 'classy': False, 'hipster': False, 'divey': False, 'touristy': False, 'trendy': False, 'upscale': False, 'casual': True}", "HasTV": "False", "Alcohol": "'none'", "WiFi": "u'free'", "RestaurantsGoodForGroups": "True", "GoodForKids": "True", "GoodForMeal": "{'dessert': False, 'latenight': False, 'lunch': False, 'dinner': False, 'brunch': True, 'breakfast': False}"}, "categories": "Restaurants, Breakfast & Brunch", "hours": {"Monday": "6:0-15:0", "Tuesday": "6:0-15:0", "Wednesday": "6:0-15:0", "Thursday": "6:0-15:0", "Friday": "6:0-15:0", "Saturday": "6:0-15:0", "Sunday": "7:0-15:0"}}
{"business_id": "k89T_99fj_x-rhYZ4z81mA", "name": "Mio Stone Grill & Sushi", "address": "2100 Market Street SE, Unit 111", "city": "Airdrie", "state": "AB", "postal_code": "T4A 0B1", "latitude": 51.2694205739, "longitude": -113.9944303949, "stars": 5.0, "review_count": 31, "is_open": 1, "attributes": {"OutdoorSeating": "False", "RestaurantsTakeOut": "True", "RestaurantsAttire": "'casual'", "BusinessParking": "{'garage': False, 'street': False, 'validated': False, 'lot': True, 'valet': False}", "NoiseLevel": "u'quiet'", "Ambience": "{'romantic': False, 'intimate': False, 'classy': False, 'hipster': False, 'divey': False, 'touristy': False, 'trendy': False, 'upscale': False, 'casual': True}", "RestaurantsPriceRange2": "2", "HasTV": "True", "WiFi": "u'free'", "RestaurantsGoodForGroups": "True", "RestaurantsDelivery": "True", "Caters": "False", "GoodForKids": "True", "Alcohol": "u'full_bar'", "GoodForMeal": "{'dessert': False, 'latenight': False, 'lunch': False, 'dinner': False, 'brunch': False, 'breakfast': False}", "BikeParking": "True", "RestaurantsReservations": "True"}, "categories": "Restaurants, Japanese, Sushi Bars, Food", "hours": null}
{"business_id": "pcVOhj47dmwEmNOYIcUW8Q", "name": "Anna's Spa & Wellness", "address": "107 1st Street NW", "city": "Airdrie", "state": "AB", "postal_code": "T4B 0R3", "latitude": 51.291711, "longitude": -114.015091, "stars": 1.0, "review_count": 3, "is_open": 1, "attributes": {"BusinessParking": "{'garage': False, 'street': True, 'validated': False, 'lot': False, 'valet': False}", "RestaurantsPriceRange2": "2", "BikeParking": "True", "ByAppointmentOnly": "True"}, "categories": "Medical Spas, Health & Medical, Massage, Beauty & Spas, Day Spas, Massage Therapy, Laser Hair Removal, Hair Removal", "hours": {"Monday": "11:0-17:0", "Tuesday": "10:0-20:0", "Wednesday": "10:0-20:0", "Thursday": "10:0-20:0", "Friday": "10:0-20:0", "Saturday": "11:0-17:0"}}
{"business_id": "voxAvmdMbY0YrCCbgN6lXA", "name": "Starbucks", "address": "101 505 Main Street", "city": "Airdrie", "state": "AB", "postal_code": "T4B 3K3", "latitude": 51.2898841742, "longitude": -114.0138961002, "stars": 3.5, "review_count": 3, "is_open": 1, "attributes": {"BusinessParking": "{'garage': False, 'street': False, 'validated': False, 'lot': False, 'valet': False}", "RestaurantsPriceRange2": "2", "WiFi": "'free'", "OutdoorSeating": "True"}, "categories": "Coffee & Tea, Food", "hours": null}
{"business_id": "2fzvsqTtnrwkamOLjcVToQ", "name": "Ricky's All Day Grill", "address": "988 Yankee Valley Boulevard SE, Suite 404", "city": "Airdrie", "state": "AB", "postal_code": "T4A 2E4", "latitude": 51.2712695, "longitude": -113.9918807, "stars": 3.5, "review_count": 12, "is_open": 1, "attributes": {"RestaurantsAttire": "'casual'", "RestaurantsGoodForGroups": "True", "GoodForKids": "True", "Caters": "False", "RestaurantsDelivery": "False", "NoiseLevel": "u'average'", "RestaurantsTakeOut": "True", "RestaurantsReservations": "False", "RestaurantsPriceRange2": "2"}, "categories": "Diners, Restaurants, Breakfast & Brunch", "hours": {"Monday": "7:0-22:0", "Tuesday": "7:0-22:0", "Wednesday": "7:0-22:0", "Thursday": "7:0-22:0", "Friday": "7:0-23:0", "Saturday": "7:0-23:0", "Sunday": "7:0-22:0"}}
{"business_id": "bLPDgXKvYiChCBLv4Tpe2A", "name": "Connie's Diamonds", "address": "960 Yankee Valley Boulevard SE", "city": "Airdrie", "state": "AB", "postal_code": "T4A 2E4", "latitude": 51.2710541, "longitude": -113.9925649, "stars": 2.5, "review_count": 3, "is_open": 1, "attributes": {"RestaurantsPriceRange2": "4", "BusinessParking": "{'garage': False, 'street': False, 'validated': False, 'lot': False, 'valet': False}", "ByAppointmentOnly": "False"}, "categories": "Jewelry, Shopping", "hours": {"Monday": "10:0-18:0", "Tuesday": "10:0-18:0", "Wednesday": "10:0-18:0", "Thursday": "10:0-19:0", "Friday": "10:0-19:0", "Saturday": "10:0-17:0", "Sunday": "0:0-0:0"}}
{"business_id": "dST9LLz9s-cvUiZNI7efnw", "name": "Vintage Soda Co", "address": "127 Kingsview Road, Unit 113", "city": "Airdrie", "state": "AB", "postal_code": "T4A 0A8", "latitude": 51.2588710778, "longitude": -113.998907363, "stars": 5.0, "review_count": 3, "is_open": 1, "attributes": {"RestaurantsPriceRange2": "2", "BikeParking": "True", "Caters": "False", "BusinessParking": "{'garage': False, 'street': False, 'validated': False, 'lot': False, 'valet': False}", "RestaurantsTakeOut": "True"}, "categories": "Specialty Food, Food, Candy Stores", "hours": {"Wednesday": "11:0-18:0", "Thursday": "11:0-18:0", "Friday": "11:0-18:0", "Saturday": "11:0-18:0", "Sunday": "12:0-17:0"}}
{"business_id": "xuWzcsuQUluZwWb67TQG8w", "name": "OPA! of Greece Sierra Springs", "address": "201 - 122 Sierra Springs Dr", "city": "Airdrie", "state": "AB", "postal_code": "T4B 3G7", "latitude": 51.2672937, "longitude": -114.0027993, "stars": 1.5, "review_count": 3, "is_open": 1, "attributes": {"RestaurantsTakeOut": "True", "RestaurantsGoodForGroups": "True", "RestaurantsPriceRange2": "1", "RestaurantsDelivery": "False", "RestaurantsReservations": "False"}, "categories": "Greek, Fast Food, Restaurants", "hours": {"Monday": "10:30-21:0", "Tuesday": "10:30-21:0", "Wednesday": "10:30-21:0", "Thursday": "10:30-22:0", "Friday": "10:30-22:0", "Saturday": "10:30-22:0", "Sunday": "11:0-21:0"}}
{"business_id": "h01EN1mNGpeRzEcmkTpaQQ", "name": "Waves Coffee House", "address": "105 Main Street N", "city": "Airdrie", "state": "AB", "postal_code": "T4B 0P7", "latitude": 51.292076, "longitude": -114.013993, "stars": 4.5, "review_count": 3, "is_open": 0, "attributes": {"WiFi": "u'free'", "OutdoorSeating": "True", "RestaurantsPriceRange2": "2", "BusinessParking": "{'garage': False, 'street': False, 'validated': False, 'lot': False, 'valet': False}"}, "categories": "Coffee & Tea, Food", "hours": {"Monday": "7:0-22:0", "Tuesday": "7:0-22:0", "Wednesday": "7:0-22:0", "Thursday": "7:0-22:0", "Friday": "7:0-22:0", "Saturday": "8:0-22:0", "Sunday": "8:0-21:0"}}
{"business_id": "IQhBsMtHfZy72-1ivmEgTA", "name": "Thang Long", "address": "207-304 Main Street SE", "city": "Airdrie", "state": "AB", "postal_code": "T4B 3L8", "latitude": 51.2905687, "longitude": -114.0134538, "stars": 4.0, "review_count": 11, "is_open": 1, "attributes": {"BusinessParking": "{'garage': False, 'street': False, 'validated': False, 'lot': False, 'valet': False}", "RestaurantsTakeOut": "True", "Ambience": "{'romantic': False, 'intimate': False, 'classy': False, 'hipster': False, 'divey': False, 'touristy': False, 'trendy': False, 'upscale': False, 'casual': False}", "GoodForMeal": "{'dessert': False, 'latenight': False, 'lunch': False, 'dinner': False, 'brunch': False, 'breakfast': False}", "RestaurantsReservations": "True", "RestaurantsPriceRange2": "2", "OutdoorSeating": "True", "GoodForKids": "True", "RestaurantsDelivery": "True", "RestaurantsGoodForGroups": "True"}, "categories": "Restaurants, Vietnamese", "hours": {"Monday": "10:30-21:0", "Tuesday": "10:30-21:0", "Wednesday": "10:30-21:0", "Thursday": "10:30-21:0", "Friday": "10:30-21:0", "Saturday": "11:30-20:0"}}
{"business_id": "Ac6uL8z2exWiDjz6r7NVbw", "name": "Tommy Gun's Original Barbershop", "address": "2800 Main Street SE, Unit 2161", "city": "Airdrie", "state": "AB", "postal_code": "T4B 3G2", "latitude": 51.2650264, "longitude": -114.0061311, "stars": 3.5, "review_count": 3, "is_open": 1, "attributes": {"RestaurantsPriceRange2": "2", "ByAppointmentOnly": "False", "BusinessParking": "{'garage': False, 'street': False, 'validated': False, 'lot': False, 'valet': False}", "BikeParking": "True"}, "categories": "Barbers, Beauty & Spas", "hours": {"Monday": "9:0-21:0", "Tuesday": "9:0-21:0", "Wednesday": "9:0-21:0", "Thursday": "9:0-21:0", "Friday": "9:0-21:0", "Saturday": "9:0-18:0", "Sunday": "11:0-17:0"}}
{"business_id": "y-Jp4iSIMDJE4JzGBh7M-g", "name": "Noodlebox", "address": "2821 Main Street, Suite 101", "city": "Airdrie", "state": "AB", "postal_code": "T4B 3S6", "latitude": 51.2637385, "longitude": -114.0060405, "stars": 4.5, "review_count": 13, "is_open": 1, "attributes": {"RestaurantsGoodForGroups": "True", "RestaurantsDelivery": "True", "BikeParking": "True", "GoodForKids": "True", "RestaurantsReservations": "False", "NoiseLevel": "u'average'", "WiFi": "u'free'", "HasTV": "False", "RestaurantsPriceRange2": "2", "Ambience": "{'touristy': False, 'hipster': False, 'romantic': False, 'intimate': False, 'trendy': False, 'upscale': False, 'classy': False, 'casual': False}", "RestaurantsAttire": "'casual'", "RestaurantsTakeOut": "True", "OutdoorSeating": "False"}, "categories": "Food, Noodles, Restaurants, Vegan, Chinese, Gluten-Free, Asian Fusion", "hours": {"Monday": "11:0-21:0", "Tuesday": "11:0-21:0", "Wednesday": "11:0-21:0", "Thursday": "11:0-21:0", "Friday": "11:0-21:0", "Saturday": "12:0-21:0", "Sunday": "12:0-20:0"}}
{"business_id": "cuvbgIfjSjSv4bpmiGFyAQ", "name": "Fraserway RV", "address": "536 Kingsview Way SE", "city": "Airdrie", "state": "AB", "postal_code": "T4A 0B3", "latitude": 51.2624065, "longitude": -113.9979226, "stars": 4.0, "review_count": 5, "is_open": 1, "attributes": null, "categories": "Automotive, Auto Repair, RV Dealers, Car Dealers, RV Rental, RV Repair, Hotels & Travel", "hours": {"Monday": "0:0-0:0", "Tuesday": "9:0-20:0", "Wednesday": "11:0-16:0", "Thursday": "11:0-16:0", "Friday": "11:0-16:0", "Saturday": "11:0-16:0", "Sunday": "11:0-16:0"}}
{"business_id": "qlb1H4zvLBlgKsMzWI23ww", "name": "NAPA Auto Parts - NAPA Airdrie", "address": "118 E Lake Boulevard NE, Unit 200", "city": "Airdrie", "state": "AB", "postal_code": "T4A 2G2", "latitude": 51.2963563, "longitude": -113.9885457, "stars": 2.5, "review_count": 3, "is_open": 1, "attributes": null, "categories": "Automotive, Auto Parts & Supplies", "hours": {"Monday": "7:30-20:0", "Tuesday": "7:30-20:0", "Wednesday": "7:30-20:0", "Thursday": "7:30-20:0", "Friday": "7:30-20:0", "Saturday": "8:0-17:0", "Sunday": "9:0-17:0"}}
{"business_id": "-RkF90BOkDp3iAiGrfWCoQ", "name": "Swiss Chalet Rotisserie & Grill", "address": "4000, 130 Sierra Springs Dr", "city": "Airdrie", "state": "AB", "postal_code": "T4B 3G6", "latitude": 51.266531, "longitude": -114.002531, "stars": 2.5, "review_count": 11, "is_open": 1, "attributes": {"RestaurantsTakeOut": "True", "RestaurantsDelivery": "True", "GoodForKids": "True", "RestaurantsGoodForGroups": "True", "RestaurantsAttire": "'casual'"}, "categories": "Seafood, American (Traditional), Restaurants, Food, Desserts, Comfort Food", "hours": {"Monday": "11:0-22:0", "Tuesday": "11:0-22:0", "Wednesday": "11:0-22:0", "Thursday": "11:0-22:0", "Friday": "11:0-22:0", "Saturday": "11:0-22:0", "Sunday": "11:0-21:30"}}
{"business_id": "Gf5aDGXZFSca4RQQ0-rT9Q", "name": "Creekside Chinese", "address": "91 E Lake Crescent NE, Unit 2", "city": "Airdrie", "state": "AB", "postal_code": "T4A", "latitude": 51.292096, "longitude": -113.998273, "stars": 3.0, "review_count": 5, "is_open": 1, "attributes": {"RestaurantsTableService": "True", "HasTV": "True", "Alcohol": "u'full_bar'", "RestaurantsGoodForGroups": "True", "GoodForKids": "True", "RestaurantsReservations": "True", "RestaurantsDelivery": "True", "WiFi": "u'no'"}, "categories": "Restaurants, Buffets, Chinese", "hours": {"Monday": "16:30-21:30", "Tuesday": "16:30-21:30", "Wednesday": "16:30-21:30", "Thursday": "16:30-21:30", "Friday": "16:0-22:0", "Saturday": "16:0-22:0", "Sunday": "16:0-22:0"}}
{"business_id": "28qOeJSewEgKXHxzYA3CIA", "name": "Pasta La Vista", "address": "532 1 Avenue NE, Suite 104", "city": "Airdrie", "state": "AB", "postal_code": "T4B 0R6", "latitude": 51.2930276, "longitude": -114.0020844, "stars": 3.5, "review_count": 6, "is_open": 1, "attributes": {"RestaurantsReservations": "True", "RestaurantsAttire": "'casual'"}, "categories": "Italian, Restaurants, Pizza", "hours": {"Monday": "11:0-22:0", "Tuesday": "11:0-22:0", "Wednesday": "11:0-22:0", "Thursday": "11:0-22:0", "Friday": "11:0-23:0", "Saturday": "9:0-22:0", "Sunday": "9:0-21:0"}}
{"business_id": "TV3aE0idIzoZ_nFWPGNfSw", "name": "Jack's Classic Nails & Spa", "address": "Towerlane ll, 1700 705 Main Street S", "city": "Airdrie", "state": "AB", "postal_code": "T4B 3M2", "latitude": 51.2865712, "longitude": -114.0149368, "stars": 3.5, "review_count": 6, "is_open": 1, "attributes": {"RestaurantsPriceRange2": "2", "BusinessParking": "{'garage': False, 'street': False, 'validated': False, 'lot': False, 'valet': False}", "ByAppointmentOnly": "False"}, "categories": "Nail Salons, Hair Salons, Beauty & Spas", "hours": null}
{"business_id": "whna2RFSoCeYSaRIefRseA", "name": "MR MIKES SteakhouseCasual", "address": "130 Sierra Springs Dr", "city": "Airdrie", "state": "AB", "postal_code": "T4B 3G6", "latitude": 51.268333, "longitude": -114.002727, "stars": 3.0, "review_count": 27, "is_open": 1, "attributes": {"RestaurantsTakeOut": "True", "BikeParking": "True", "RestaurantsAttire": "u'casual'", "HasTV": "True", "OutdoorSeating": "True", "RestaurantsGoodForGroups": "True", "WiFi": "u'free'", "Ambience": "{'romantic': False, 'intimate': False, 'classy': False, 'upscale': False, 'touristy': False, 'trendy': False, 'hipster': False, 'casual': True}", "NoiseLevel": "u'quiet'", "RestaurantsPriceRange2": "2", "Caters": "False", "RestaurantsReservations": "True", "Alcohol": "u'full_bar'", "BusinessParking": "{'garage': False, 'street': False, 'validated': False, 'lot': True, 'valet': False}", "GoodForKids": "True", "RestaurantsDelivery": "False"}, "categories": "Restaurants, Steakhouses, Canadian (New)", "hours": {"Monday": "11:0-23:0", "Tuesday": "11:0-23:0", "Wednesday": "11:0-23:0", "Thursday": "11:0-0:0", "Friday": "11:0-0:0", "Saturday": "11:0-0:0", "Sunday": "11:0-22:0"}}
{"business_id": "mYolGvDfrxZaqDU2Mf7M5Q", "name": "Good Earth", "address": "35 Mackenzie Way SW, Ste 1109", "city": "Airdrie", "state": "AB", "postal_code": "T4B 0V7", "latitude": 51.2918972, "longitude": -114.0243086, "stars": 2.5, "review_count": 3, "is_open": 1, "attributes": {"OutdoorSeating": "True", "BusinessParking": "{'garage': False, 'street': False, 'validated': False, 'lot': False, 'valet': False}", "WiFi": "u'free'", "Caters": "True", "RestaurantsPriceRange2": "2", "BikeParking": "True", "RestaurantsTakeOut": "True"}, "categories": "Food, Coffee & Tea", "hours": {"Monday": "6:0-22:0", "Tuesday": "6:0-22:0", "Wednesday": "6:0-22:0", "Thursday": "6:0-22:0", "Friday": "6:0-22:0", "Saturday": "6:0-22:0", "Sunday": "8:0-20:0"}}
{"business_id": "y2Tcr6CMgeVWCRa_OFJ2pA", "name": "Sophies Pizza", "address": "35 Mackenzie Way SW, Suite 1101", "city": "Airdrie", "state": "AB", "postal_code": "T4B 0V7", "latitude": 51.2924584543, "longitude": -114.0238268034, "stars": 3.5, "review_count": 11, "is_open": 1, "attributes": {"Alcohol": "'none'", "NoiseLevel": "'quiet'", "RestaurantsTakeOut": "True", "RestaurantsGoodForGroups": "True", "BusinessParking": "{'garage': False, 'street': False, 'validated': False, 'lot': False, 'valet': False}", "RestaurantsAttire": "'casual'", "RestaurantsReservations": "False", "RestaurantsPriceRange2": "2", "HasTV": "True", "OutdoorSeating": "False", "GoodForKids": "True", "RestaurantsTableService": "False", "RestaurantsDelivery": "True"}, "categories": "Pizza, Restaurants", "hours": {"Monday": "16:0-22:0", "Tuesday": "16:0-22:0", "Wednesday": "16:0-22:0", "Thursday": "16:0-22:0", "Friday": "15:0-23:0", "Saturday": "15:0-23:0", "Sunday": "15:0-22:0"}}
{"business_id": "yui94avcYwbwb4eIf0BQmw", "name": "Ferraro Truly Italian", "address": "513 Centre Avenue E", "city": "Airdrie", "state": "AB", "postal_code": "T4B 1P9", "latitude": 51.2912510007, "longitude": -114.003614246, "stars": 3.5, "review_count": 3, "is_open": 1, "attributes": null, "categories": "Italian, Restaurants", "hours": null}
{"business_id": "noDalwEUVH47tmPeUHrk3w", "name": "StorageMart", "address": "RR#2 285194 Township Rd 270", "city": "Airdrie", "state": "AB", "postal_code": "T4B 2A4", "latitude": 51.2707718271, "longitude": -113.9370517305, "stars": 1.0, "review_count": 4, "is_open": 1, "attributes": null, "categories": "Self Storage, Local Services", "hours": {"Monday": "9:30-18:0", "Tuesday": "9:30-18:0", "Wednesday": "9:30-18:0", "Thursday": "9:30-18:0", "Friday": "9:30-18:0", "Saturday": "9:30-16:0"}}
{"business_id": "Ic83mBwvGryNrYWOYCbXWg", "name": "Airdrie Specs Optometry", "address": "1-804 Main Street S", "city": "Airdrie", "state": "AB", "postal_code": "T4B 3K3", "latitude": 51.2858320235, "longitude": -114.0128537267, "stars": 3.0, "review_count": 4, "is_open": 1, "attributes": {"ByAppointmentOnly": "True"}, "categories": "Eyewear & Opticians, Health & Medical, Shopping, Optometrists", "hours": {"Monday": "8:0-19:0", "Tuesday": "8:0-19:0", "Wednesday": "8:0-19:0", "Thursday": "8:0-20:0", "Friday": "8:30-19:0", "Saturday": "9:0-17:0"}}
{"business_id": "Wow7qDt9VufsFYIFFdBkjw", "name": "Original Joe's", "address": "4105-35 Mackenzie Way SW", "city": "Airdrie", "state": "AB", "postal_code": "T4B", "latitude": 51.2917739, "longitude": -114.0247009, "stars": 3.5, "review_count": 17, "is_open": 1, "attributes": {"RestaurantsReservations": "False", "BikeParking": "True", "RestaurantsDelivery": "False", "OutdoorSeating": "True", "RestaurantsPriceRange2": "2", "RestaurantsTakeOut": "False", "HasTV": "True", "RestaurantsGoodForGroups": "True", "WiFi": "u'free'", "Alcohol": "u'full_bar'", "RestaurantsAttire": "u'casual'", "GoodForKids": "False", "Caters": "False", "BusinessParking": "{'garage': False, 'street': False, 'validated': False, 'lot': False, 'valet': False}", "NoiseLevel": "u'loud'", "Ambience": "{'romantic': False, 'intimate': False, 'classy': False, 'hipster': False, 'divey': False, 'touristy': False, 'trendy': False, 'upscale': False, 'casual': True}"}, "categories": "Restaurants, Canadian (New), Bars, American (Traditional), Nightlife, American (New)", "hours": {"Monday": "11:0-0:0", "Tuesday": "11:0-0:0", "Wednesday": "11:0-0:0", "Thursday": "11:0-2:0", "Friday": "11:0-2:0", "Saturday": "11:0-2:0", "Sunday": "11:0-0:0"}}
{"business_id": "b7kpFwn_mBu0n76VFi_-hA", "name": "Toad 'n' Turtle Pubhouse", "address": "1900 Market Street SE", "city": "Airdrie", "state": "AB", "postal_code": "T4A 0B1", "latitude": 51.2696070716, "longitude": -113.9951679096, "stars": 3.0, "review_count": 20, "is_open": 1, "attributes": {"Caters": "True", "Ambience": "{'romantic': False, 'intimate': False, 'classy': False, 'hipster': False, 'divey': False, 'touristy': False, 'trendy': False, 'upscale': False, 'casual': True}", "RestaurantsReservations": "True", "OutdoorSeating": "True", "RestaurantsDelivery": "True", "BikeParking": "True", "NoiseLevel": "u'average'", "RestaurantsPriceRange2": "2", "Alcohol": "u'full_bar'", "RestaurantsAttire": "'casual'", "RestaurantsGoodForGroups": "True", "WiFi": "'free'", "BusinessParking": "{'garage': False, 'street': False, 'validated': False, 'lot': False, 'valet': False}", "GoodForKids": "True", "RestaurantsTakeOut": "False", "HasTV": "True", "HappyHour": "True"}, "categories": "Nightlife, Pubs, Bars, Gastropubs, Restaurants", "hours": {"Monday": "11:0-0:0", "Tuesday": "11:0-0:0", "Wednesday": "11:0-0:0", "Thursday": "11:0-0:0", "Friday": "11:0-1:0", "Saturday": "10:0-1:0", "Sunday": "10:0-23:0"}}
{"business_id": "XWmeJNsDOcoAXki-vncs2Q", "name": "Landmark Cinemas Roxy Theatre", "address": "121 Main Street SW, Suite 407", "city": "Airdrie", "state": "AB", "postal_code": "T4B 2B7", "latitude": 51.2907335, "longitude": -114.0147435, "stars": 3.5, "review_count": 3, "is_open": 1, "attributes": {"GoodForKids": "True"}, "categories": "Cinema, Arts & Entertainment", "hours": null}
{"business_id": "BCrWTpv4PWojtcWhEqJ5VA", "name": "Sierra Springs Dental", "address": "2821 Main Street S, Suite 103", "city": "Airdrie", "state": "AB", "postal_code": "T4B 3G2", "latitude": 51.2637709, "longitude": -114.0060199, "stars": 2.5, "review_count": 3, "is_open": 1, "attributes": {"ByAppointmentOnly": "True", "AcceptsInsurance": "True"}, "categories": "General Dentistry, Orthodontists, Health & Medical, Cosmetic Dentists, Dentists", "hours": {"Monday": "8:0-20:0", "Tuesday": "8:0-20:0", "Wednesday": "8:0-20:0", "Thursday": "8:0-20:0", "Friday": "9:0-17:0", "Saturday": "9:0-17:0"}}
{"business_id": "Y11qtRqKVgRyZsjhXqvr2Q", "name": "Boardwalk Fries Burgers Shakes", "address": "11301 8th Street SW", "city": "Airdrie", "state": "AB", "postal_code": "T4B", "latitude": 51.272202, "longitude": -114.025548, "stars": 2.5, "review_count": 9, "is_open": 1, "attributes": {"WheelchairAccessible": "True", "RestaurantsTakeOut": "True", "DriveThru": "False", "RestaurantsPriceRange2": "2", "RestaurantsDelivery": "False", "RestaurantsAttire": "u'casual'", "BikeParking": "False", "GoodForKids": "True", "BusinessParking": "{'garage': False, 'street': False, 'validated': False, 'lot': True, 'valet': False}", "DogsAllowed": "False", "RestaurantsTableService": "True", "GoodForMeal": "{'dessert': False, 'latenight': False, 'lunch': False, 'dinner': False, 'brunch': False, 'breakfast': False}", "OutdoorSeating": "True", "WiFi": "u'free'", "RestaurantsReservations": "True", "HasTV": "True", "Caters": "False", "NoiseLevel": "u'average'", "Alcohol": "u'none'", "Ambience": "{'touristy': False, 'hipster': False, 'romantic': False, 'intimate': False, 'trendy': False, 'upscale': False, 'classy': False, 'casual': False}"}, "categories": "Burgers, Fast Food, Restaurants", "hours": {"Monday": "11:0-22:0", "Tuesday": "11:0-22:0", "Wednesday": "11:0-22:0", "Thursday": "11:0-22:0", "Friday": "11:0-22:0", "Saturday": "11:0-22:0", "Sunday": "11:0-22:0"}}
{"business_id": "2_XBMgib8MFyfH_Fhr8pvQ", "name": "Starbucks", "address": "114 Sierra Springs Dr SE", "city": "Airdrie", "state": "AB", "postal_code": "T4B 3G6", "latitude": 51.2694435973, "longitude": -114.0030769015, "stars": 3.5, "review_count": 9, "is_open": 1, "attributes": {"BikeParking": "True", "RestaurantsTakeOut": "True", "RestaurantsPriceRange2": "2", "Caters": "False", "BusinessParking": "{'garage': False, 'street': False, 'validated': False, 'lot': True, 'valet': False}", "WiFi": "u'free'", "OutdoorSeating": "True"}, "categories": "Coffee & Tea, Food", "hours": null}
{"business_id": "38lQxDXh6qCUWBFm8UIITA", "name": "Pho East Lake", "address": "805 East Lake Boulevard NE, Unit 9", "city": "Airdrie", "state": "AB", "postal_code": "T4A 2G4", "latitude": 51.2851050565, "longitude": -113.9966640589, "stars": 4.0, "review_count": 12, "is_open": 1, "attributes": {"RestaurantsDelivery": "True", "NoiseLevel": "'quiet'", "RestaurantsGoodForGroups": "True", "HasTV": "True", "RestaurantsReservations": "False", "OutdoorSeating": "False", "RestaurantsPriceRange2": "1", "RestaurantsTakeOut": "True", "BikeParking": "True", "RestaurantsAttire": "'casual'", "BusinessParking": "{'garage': False, 'street': False, 'validated': False, 'lot': False, 'valet': False}", "GoodForKids": "True", "Ambience": "{'romantic': False, 'intimate': False, 'classy': False, 'hipster': False, 'divey': False, 'touristy': False, 'trendy': False, 'upscale': False, 'casual': False}"}, "categories": "Vietnamese, Restaurants", "hours": {"Monday": "10:30-20:30", "Tuesday": "10:30-20:30", "Wednesday": "10:30-20:30", "Thursday": "10:30-20:30", "Friday": "10:30-20:30", "Saturday": "12:0-20:30"}}
{"business_id": "8bV8M6F8BhNdCMc9U_saxg", "name": "Kal Tire", "address": "11 E Lake Way NE", "city": "Airdrie", "state": "AB", "postal_code": "T4A 2J4", "latitude": 51.290766, "longitude": -113.996921, "stars": 3.0, "review_count": 5, "is_open": 1, "attributes": null, "categories": "Automotive, Tires, Auto Repair, Oil Change Stations", "hours": {"Monday": "7:30-18:0", "Tuesday": "7:30-18:0", "Wednesday": "7:30-18:0", "Thursday": "7:30-18:0", "Friday": "7:30-18:0", "Saturday": "8:0-17:0"}}
{"business_id": "4VRWWu4juuVV-dpv8p9Daw", "name": "Bogey's Pub & Pizza", "address": "905 1 Avenue SW", "city": "Airdrie", "state": "AB", "postal_code": "T4B 2X7", "latitude": 51.2922628, "longitude": -114.0262945, "stars": 3.0, "review_count": 4, "is_open": 1, "attributes": {"Alcohol": "u'full_bar'", "BusinessParking": "{'garage': False, 'street': False, 'validated': False, 'lot': True, 'valet': False}", "RestaurantsReservations": "True", "RestaurantsPriceRange2": "2", "GoodForKids": "False", "RestaurantsDelivery": "False", "RestaurantsTakeOut": "True", "OutdoorSeating": "False", "RestaurantsGoodForGroups": "True", "Ambience": "{'romantic': False, 'intimate': False, 'classy': False, 'hipster': False, 'divey': False, 'touristy': False, 'trendy': False, 'upscale': False, 'casual': False}", "HasTV": "True", "WiFi": "u'no'", "NoiseLevel": "u'very_loud'", "RestaurantsAttire": "u'casual'", "Caters": "False"}, "categories": "Pubs, Bars, Pizza, Restaurants, Nightlife", "hours": {"Monday": "11:0-22:0", "Tuesday": "11:0-22:0", "Wednesday": "11:0-22:0", "Thursday": "11:0-22:0", "Friday": "10:0-0:0", "Saturday": "10:0-0:0", "Sunday": "11:0-22:0"}}
{"business_id": "vrKwIQDVr0y_1JdgwLNTgA", "name": "KingsView Barber", "address": "2100 Market Street", "city": "Airdrie", "state": "AB", "postal_code": "T4A 0B1", "latitude": 51.2707668, "longitude": -113.9936351, "stars": 4.0, "review_count": 4, "is_open": 1, "attributes": {"BusinessParking": "{'garage': False}", "ByAppointmentOnly": "False", "RestaurantsPriceRange2": "2"}, "categories": "Beauty & Spas, Barbers", "hours": null}
{"business_id": "EwTbYFNjegKlLSUxWU17eQ", "name": "Menchie's", "address": "1107-08 35 Mackenzie Way SW", "city": "Airdrie", "state": "AB", "postal_code": "T4B 0V7", "latitude": 51.2924538, "longitude": -114.0243691, "stars": 3.0, "review_count": 13, "is_open": 1, "attributes": {"BusinessParking": "{'garage': False, 'street': False, 'validated': False, 'lot': True, 'valet': False}", "RestaurantsTakeOut": "True", "RestaurantsPriceRange2": "3"}, "categories": "Ice Cream & Frozen Yogurt, Food", "hours": {"Monday": "11:0-22:0", "Tuesday": "11:0-22:0", "Wednesday": "11:0-22:0", "Thursday": "11:0-22:0", "Friday": "11:0-22:0", "Saturday": "11:0-22:0", "Sunday": "11:0-22:0"}}
{"business_id": "-8buD09KSmRWpoi2M9MtZg", "name": "Breathe Hot Yoga Airdrie", "address": "800 Yankee Valley Boulevard SW, Suite 309", "city": "Airdrie", "state": "AB", "postal_code": "T4B 3Y2", "latitude": 51.2710332121, "longitude": -114.0262965905, "stars": 2.5, "review_count": 3, "is_open": 1, "attributes": {"GoodForKids": "True", "RestaurantsPriceRange2": "2"}, "categories": "Acupuncture, Active Life, Yoga, Massage, Fitness & Instruction, Health & Medical, Beauty & Spas", "hours": {"Monday": "6:0-22:30", "Tuesday": "6:0-22:30", "Wednesday": "6:0-22:30", "Thursday": "6:0-22:30", "Friday": "6:0-22:30", "Saturday": "8:0-17:0", "Sunday": "8:0-21:15"}}
{"business_id": "hV21jF0CA9wAR5STebdGKw", "name": "Airdrie Honda", "address": "2971 Main Street SW", "city": "Airdrie", "state": "AB", "postal_code": "T4B 3G4", "latitude": 51.257708, "longitude": -114.005171, "stars": 1.5, "review_count": 3, "is_open": 1, "attributes": null, "categories": "Car Dealers, Automotive", "hours": null}
{"business_id": "5VUZF7KvQMBmjqvz4oQ0XA", "name": "Tim Hortons", "address": "2649 Main Street SW", "city": "Airdrie", "state": "AB", "postal_code": "T4B 2V7", "latitude": 51.2690982, "longitude": -114.0095821, "stars": 2.5, "review_count": 6, "is_open": 1, "attributes": {"RestaurantsPriceRange2": "1", "BusinessParking": "{'garage': False, 'street': False, 'validated': False, 'lot': True, 'valet': False}", "RestaurantsTakeOut": "True", "BikeParking": "True"}, "categories": "Food", "hours": null}
{"business_id": "6a2hWL8huM_d0LHnwKiRHQ", "name": "Electricman of Airdrie", "address": "204 - 304 Main St SE", "city": "Airdrie", "state": "AB", "postal_code": "T4B 3M2", "latitude": 51.2893434, "longitude": -114.0125686, "stars": 5.0, "review_count": 3, "is_open": 1, "attributes": null, "categories": "Appliances & Repair, Local Services, Electricians, Contractors, Home Services", "hours": {"Monday": "7:30-17:0", "Tuesday": "7:30-17:0", "Wednesday": "7:30-17:0", "Thursday": "7:30-17:0", "Friday": "7:30-17:0", "Saturday": "7:30-17:0", "Sunday": "7:30-17:0"}}
{"business_id": "cxSR9s5-SBXGWRRnbBUtiQ", "name": "Tequila And Tacos", "address": "210 Edmonton Trail NE", "city": "Airdrie", "state": "AB", "postal_code": "T4B 1R9", "latitude": 51.2938623, "longitude": -114.001387, "stars": 5.0, "review_count": 6, "is_open": 1, "attributes": {"GoodForMeal": "{'dessert': False, 'latenight': False, 'lunch': False, 'dinner': False, 'brunch': False, 'breakfast': False}", "BusinessParking": "{'garage': False, 'street': False, 'validated': False, 'lot': False, 'valet': False}"}, "categories": "Mexican, Restaurants", "hours": null}
{"business_id": "DgmZcZWbm9hCSqTf-sMm7A", "name": "Paros On Main", "address": "113 Main Street N", "city": "Airdrie", "state": "AB", "postal_code": "T4B 0R2", "latitude": 51.2917030718, "longitude": -114.0136795258, "stars": 3.5, "review_count": 31, "is_open": 1, "attributes": {"GoodForKids": "True", "Alcohol": "u'full_bar'", "WiFi": "u'no'", "RestaurantsReservations": "True", "BikeParking": "True", "RestaurantsGoodForGroups": "True", "HasTV": "False", "NoiseLevel": "u'quiet'", "BusinessParking": "{'garage': False, 'street': True, 'validated': False, 'lot': False, 'valet': False}", "RestaurantsTakeOut": "True", "RestaurantsPriceRange2": "2", "Ambience": "{'romantic': False, 'intimate': False, 'classy': False, 'hipster': False, 'divey': False, 'touristy': False, 'trendy': False, 'upscale': False, 'casual': True}", "RestaurantsAttire": "u'casual'", "OutdoorSeating": "False", "RestaurantsTableService": "True", "WheelchairAccessible": "True", "Caters": "True", "RestaurantsDelivery": "True"}, "categories": "Greek, Restaurants", "hours": {"Monday": "11:0-22:0", "Tuesday": "11:0-22:0", "Wednesday": "11:0-22:0", "Thursday": "11:0-22:0", "Friday": "11:0-22:0", "Saturday": "16:0-22:0", "Sunday": "16:0-22:0"}}
{"business_id": "A-_LvvIHes9mQuU1Idla8A", "name": "Lowe's", "address": "261199 Crossiron Blvd, Rocky View", "city": "Airdrie", "state": "AB", "postal_code": "T4A 0J6", "latitude": 51.2082411633, "longitude": -113.9931535721, "stars": 1.0, "review_count": 3, "is_open": 1, "attributes": null, "categories": "Home Services, Building Supplies", "hours": {"Monday": "7:0-22:0", "Tuesday": "7:0-22:0", "Wednesday": "7:0-22:0", "Thursday": "7:0-22:0", "Friday": "7:0-22:0"}}
{"business_id": "AcdWJ50Yj8mFUQ-SrSKSnw", "name": "The Avenue Cakery & Bakeshoppe", "address": "6, 620 1st Ave", "city": "Airdrie", "state": "AB", "postal_code": "T4B 3H1", "latitude": 51.2931, "longitude": -114.023245, "stars": 4.5, "review_count": 14, "is_open": 1, "attributes": {"BikeParking": "True", "RestaurantsPriceRange2": "2", "BusinessParking": "{'garage': False, 'street': False, 'validated': False, 'lot': False, 'valet': False}", "RestaurantsTakeOut": "True"}, "categories": "Wedding Planning, Event Planning & Services, Desserts, Food", "hours": null}
{"business_id": "DgCmEK8Cnsgb5w5tOGyPCA", "name": "Jiffy Lube", "address": "200-2649 Main Street", "city": "Airdrie", "state": "AB", "postal_code": "T4B 2V7", "latitude": 51.2706753838, "longitude": -114.008667469, "stars": 3.0, "review_count": 3, "is_open": 1, "attributes": null, "categories": "Automotive, Oil Change Stations", "hours": {"Monday": "8:0-18:0", "Tuesday": "8:0-18:0", "Wednesday": "8:0-18:0", "Thursday": "8:0-18:0", "Friday": "8:0-18:0", "Saturday": "8:0-18:0", "Sunday": "10:0-17:0"}}
{"business_id": "PPHY3z6WdW65D9Mz656mwg", "name": "Destination Cycles", "address": "73 East Lake Crescent NE", "city": "Airdrie", "state": "AB", "postal_code": "T4A 2H6", "latitude": 51.292785, "longitude": -113.997396, "stars": 4.5, "review_count": 3, "is_open": 1, "attributes": null, "categories": "Auto Repair, Motorcycle Repair, Motorcycle Dealers, Automotive", "hours": null}
{"business_id": "_0JJc4Pd4s7t_kDTZ9J5hw", "name": "A&W", "address": "121 Edmonton Trail NE", "city": "Airdrie", "state": "AB", "postal_code": "T4B 1S1", "latitude": 51.292138, "longitude": -114.002148, "stars": 4.0, "review_count": 4, "is_open": 1, "attributes": {"RestaurantsTakeOut": "True", "OutdoorSeating": "False", "GoodForKids": "True", "RestaurantsDelivery": "False", "RestaurantsGoodForGroups": "True", "WiFi": "u'free'", "RestaurantsReservations": "False"}, "categories": "Restaurants, Burgers, Fast Food", "hours": {"Monday": "6:0-23:0", "Tuesday": "6:0-23:0", "Wednesday": "6:0-23:0", "Thursday": "6:0-23:0", "Friday": "6:0-23:0", "Saturday": "6:0-23:0", "Sunday": "6:0-23:0"}}
{"business_id": "dqw-6LhOPvJczH8FbFmrBA", "name": "Nathan's Famous Hot Dogs", "address": "130 Sierra Springs Drive Southeast, Suite 3001", "city": "Airdrie", "state": "AB", "postal_code": "T4B 3G6", "latitude": 51.268421, "longitude": -114.003647, "stars": 2.0, "review_count": 3, "is_open": 0, "attributes": {"RestaurantsPriceRange2": "2"}, "categories": "Food, Restaurants, Hot Dogs", "hours": null}
{"business_id": "qNu6LAChJDACCJfjcBOUNw", "name": "Anna's Cafe Europa", "address": "224 Main St N", "city": "Airdrie", "state": "AB", "postal_code": "T4B 0R6", "latitude": 51.2934825, "longitude": -114.0133172, "stars": 3.5, "review_count": 3, "is_open": 0, "attributes": {"RestaurantsAttire": "u'casual'", "RestaurantsGoodForGroups": "False", "BusinessParking": "{'garage': False, 'street': False, 'validated': False, 'lot': False, 'valet': False}", "Alcohol": "u'none'", "Ambience": "{'romantic': False, 'intimate': False, 'classy': False, 'hipster': False, 'touristy': False, 'trendy': False, 'upscale': False, 'casual': False}", "OutdoorSeating": "False", "RestaurantsTakeOut": "True", "NoiseLevel": "u'quiet'", "GoodForKids": "True", "Caters": "False", "WiFi": "u'no'", "RestaurantsPriceRange2": "2", "RestaurantsDelivery": "False", "RestaurantsReservations": "False"}, "categories": "Cafes, Restaurants", "hours": null}
{"business_id": "xkbexTE-nFbpHJwhtOhRqA", "name": "Kirala Sushi and Grill", "address": "505 Main Street SW, Suite 305", "city": "Airdrie", "state": "AB", "postal_code": "T4B 3K3", "latitude": 51.2888727178, "longitude": -114.0147990934, "stars": 3.0, "review_count": 12, "is_open": 1, "attributes": {"RestaurantsTakeOut": "True", "RestaurantsReservations": "True", "BikeParking": "True", "RestaurantsAttire": "u'casual'", "RestaurantsGoodForGroups": "True", "NoiseLevel": "u'quiet'", "RestaurantsPriceRange2": "2", "BusinessParking": "{'garage': False, 'street': False, 'validated': False, 'lot': False, 'valet': False}", "GoodForKids": "False", "RestaurantsDelivery": "True", "Alcohol": "u'beer_and_wine'", "OutdoorSeating": "False", "Ambience": "{'romantic': False, 'intimate': False, 'classy': False, 'hipster': False, 'divey': False, 'touristy': False, 'trendy': False, 'upscale': False, 'casual': False}"}, "categories": "Japanese, Restaurants, Korean", "hours": null}
{"business_id": "cqfDNuV3m907N7YuLZ_PEA", "name": "Sushi Haru", "address": "400 Main Street N, Suite 109", "city": "Airdrie", "state": "AB", "postal_code": "T4B 1E1", "latitude": 51.2916903, "longitude": -114.0134734, "stars": 4.5, "review_count": 10, "is_open": 1, "attributes": {"BusinessParking": "{'garage': False, 'street': False, 'validated': False, 'lot': False, 'valet': False}", "Alcohol": "'beer_and_wine'", "RestaurantsAttire": "'casual'", "BikeParking": "True", "RestaurantsDelivery": "False", "WiFi": "'no'", "HasTV": "False", "RestaurantsPriceRange2": "2", "RestaurantsTakeOut": "True", "NoiseLevel": "'average'", "RestaurantsReservations": "True", "GoodForKids": "True", "OutdoorSeating": "False", "GoodForMeal": "{'dessert': False, 'latenight': False, 'lunch': False, 'dinner': False, 'brunch': False, 'breakfast': False}", "RestaurantsGoodForGroups": "True", "Ambience": "{'romantic': False, 'intimate': False, 'classy': False, 'hipster': False, 'divey': False, 'touristy': False, 'trendy': False, 'upscale': False, 'casual': False}"}, "categories": "Restaurants, Sushi Bars, Japanese", "hours": {"Monday": "11:30-21:0", "Tuesday": "11:30-21:0", "Wednesday": "11:30-21:0", "Thursday": "11:30-21:0", "Friday": "11:30-21:30", "Saturday": "12:0-21:30", "Sunday": "12:0-21:30"}}
{"business_id": "TBpoUHSS2yLWIFQX7E5ErA", "name": "Smoker's Corner", "address": "400 Main St, Ste 115A", "city": "Airdrie", "state": "AB", "postal_code": "T2B 2N1", "latitude": 51.2941751, "longitude": -114.0134848, "stars": 3.5, "review_count": 3, "is_open": 1, "attributes": null, "categories": "Gift Shops, Jewelry, Shopping, Flowers & Gifts, Tobacco Shops", "hours": {"Monday": "11:0-20:30", "Tuesday": "11:0-20:30", "Wednesday": "11:0-20:30", "Thursday": "11:0-20:30", "Friday": "11:0-20:30", "Saturday": "11:0-20:30", "Sunday": "11:0-20:30"}}
{"business_id": "51mdXeX5j1vXdj5COePb4Q", "name": "Astoria Asset Management", "address": "202-150 Edwards Way NW", "city": "Airdrie", "state": "AB", "postal_code": "T4B 4B9", "latitude": 51.293499, "longitude": -114.019858, "stars": 2.0, "review_count": 4, "is_open": 1, "attributes": {"ByAppointmentOnly": "True"}, "categories": "Home Services, Property Management, Real Estate", "hours": {"Monday": "8:30-16:30", "Tuesday": "8:30-16:30", "Wednesday": "8:30-16:30", "Thursday": "8:30-16:30", "Friday": "8:30-16:30"}}
{"business_id": "7YlLSRKVH8ICr2OvMoVkAg", "name": "Rob's No Frills", "address": "1050 Yankee Valley Rd", "city": "Airdrie", "state": "AB", "postal_code": "T4A 2E4", "latitude": 51.2724197, "longitude": -113.9937136, "stars": 2.5, "review_count": 6, "is_open": 1, "attributes": {"RestaurantsPriceRange2": "1", "BusinessParking": "{'garage': False, 'street': False, 'validated': False, 'lot': False, 'valet': False}"}, "categories": "Food, Grocery", "hours": {"Monday": "9:0-21:0", "Tuesday": "9:0-21:0", "Wednesday": "9:0-21:0", "Thursday": "9:0-21:0", "Friday": "9:0-21:0", "Saturday": "9:0-21:0", "Sunday": "9:0-21:0"}}
{"business_id": "e-0uyskF3TpdZXPH8HeQ_w", "name": "Star Light Chinese Restaurant", "address": "960 Yankee Valley Boulevard SE", "city": "Airdrie", "state": "AB", "postal_code": "T4A 2E4", "latitude": 51.2720031, "longitude": -113.9926433, "stars": 2.5, "review_count": 7, "is_open": 1, "attributes": {"Caters": "False", "RestaurantsTakeOut": "True", "GoodForKids": "True", "RestaurantsPriceRange2": "2", "BusinessParking": "{'garage': False, 'street': False, 'validated': False, 'lot': False, 'valet': False}", "HasTV": "False", "NoiseLevel": "u'average'", "Alcohol": "'beer_and_wine'", "RestaurantsDelivery": "True", "RestaurantsGoodForGroups": "False", "RestaurantsAttire": "'casual'", "RestaurantsReservations": "True", "Ambience": "{'romantic': False, 'intimate': False, 'classy': False, 'hipster': False, 'divey': False, 'touristy': False, 'trendy': False, 'upscale': False, 'casual': False}", "WiFi": "'no'", "GoodForMeal": "{'dessert': False, 'latenight': False, 'lunch': False, 'dinner': False, 'brunch': False, 'breakfast': False}", "RestaurantsTableService": "True", "OutdoorSeating": "False"}, "categories": "Restaurants, Chinese", "hours": null}
