{"business_id": "UY1BHeeb1oE0-uk0EKqaGg", "name": "McDonald's", "address": "10823 S 51st St", "city": "Ahwatukee", "state": "AZ", "postal_code": "85044", "latitude": 33.3485509, "longitude": -111.9751512, "stars": 1.5, "review_count": 7, "is_open": 0, "attributes": {"Alcohol": "u'none'", "RestaurantsReservations": "False", "Ambience": "{'romantic': False, 'intimate': False, 'touristy': False, 'hipster': False, 'divey': False, 'classy': False, 'trendy': False, 'upscale': False, 'casual': False}", "RestaurantsPriceRange2": "2", "RestaurantsTakeOut": "False", "OutdoorSeating": "True", "RestaurantsDelivery": "False", "BusinessParking": "{'garage': False, 'street': False, 'validated': False, 'lot': False, 'valet': False}", "GoodForKids": "True", "NoiseLevel": "u'average'", "RestaurantsAttire": "'casual'", "BusinessAcceptsCreditCards": "True", "RestaurantsGoodForGroups": "True"}, "categories": "Food, Burgers, Fast Food, Restaurants", "hours": null}
{"business_id": "jEt8ed_Z2cJaBNpLG1sfsw", "name": "Hertz Rent A Car", "address": "5017 East Elliott Rd", "city": "Ahwatukee", "state": "AZ", "postal_code": "85044", "latitude": 33.3479101, "longitude": -111.9780976, "stars": 2.0, "review_count": 29, "is_open": 0, "attributes": null, "categories": "Hotels & Travel, Car Rental", "hours": {"Monday": "7:0-18:0", "Tuesday": "7:0-18:0", "Wednesday": "7:0-18:0", "Thursday": "7:0-18:0", "Friday": "7:0-18:0", "Saturday": "8:0-14:0", "Sunday": "9:0-12:0"}}
{"business_id": "ko9g03dv34Ftz37Q6J5C9Q", "name": "Aqua-Tots Swim Schools Ahwatukee", "address": "4735 E Ray Rd, Ste A001", "city": "Ahwatukee", "state": "AZ", "postal_code": "85044", "latitude": 33.3176367, "longitude": -111.9810996, "stars": 4.5, "review_count": 17, "is_open": 1, "attributes": {"BusinessParking": "{'garage': False, 'street': False, 'validated': False, 'lot': True, 'valet': False}", "WheelchairAccessible": "True", "BusinessAcceptsCreditCards": "True", "BikeParking": "True", "GoodForKids": "True", "ByAppointmentOnly": "False"}, "categories": "Active Life, Education, Swimming Lessons/Schools, Fitness & Instruction, Specialty Schools", "hours": {"Monday": "9:0-19:0", "Tuesday": "9:0-19:0", "Wednesday": "9:0-19:0", "Thursday": "9:0-19:0", "Friday": "9:0-19:0", "Saturday": "9:0-13:0"}}
{"business_id": "eVv6cnwhabK8ig5Di2hXQQ", "name": "Florencia Pizza Bistro", "address": "3646 E Ray Rd, Ste 20", "city": "Ahwatukee", "state": "AZ", "postal_code": "85044", "latitude": 33.3167644646, "longitude": -112.0040087127, "stars": 4.0, "review_count": 194, "is_open": 1, "attributes": {"RestaurantsGoodForGroups": "True", "RestaurantsAttire": "'casual'", "BusinessParking": "{'garage': False, 'street': False, 'validated': False, 'lot': True, 'valet': False}", "GoodForMeal": "{'dessert': False, 'latenight': False, 'lunch': False, 'dinner': True, 'brunch': False, 'breakfast': False}", "RestaurantsTakeOut": "True", "RestaurantsDelivery": "False", "Alcohol": "u'beer_and_wine'", "RestaurantsReservations": "True", "OutdoorSeating": "True", "RestaurantsPriceRange2": "2", "HasTV": "True", "BikeParking": "True", "WiFi": "u'no'", "NoiseLevel": "u'average'", "Caters": "True", "GoodForKids": "True", "Ambience": "{'romantic': False, 'intimate': False, 'touristy': False, 'hipster': False, 'divey': False, 'classy': False, 'trendy': False, 'upscale': False, 'casual': True}", "BusinessAcceptsCreditCards": "True"}, "categories": "Sandwiches, Italian, Pizza, Restaurants", "hours": {"Monday": "16:0-21:0", "Tuesday": "16:0-21:0", "Wednesday": "16:0-21:0", "Thursday": "11:0-21:0", "Friday": "11:0-22:0", "Saturday": "11:0-22:0", "Sunday": "11:0-21:0"}}
{"business_id": "ALvsc69ygqJfG5wLRryj-g", "name": "Sprinkler Detective", "address": "", "city": "Ahwatukee", "state": "AZ", "postal_code": "85044", "latitude": 33.3211123, "longitude": -111.9880199, "stars": 4.0, "review_count": 6, "is_open": 1, "attributes": {"BusinessAcceptsBitcoin": "False", "BusinessAcceptsCreditCards": "True"}, "categories": "Irrigation, Landscaping, Local Services, Home Services", "hours": {"Monday": "8:0-18:0", "Tuesday": "8:0-18:0", "Wednesday": "8:0-18:0", "Thursday": "8:0-18:0", "Friday": "8:0-18:0", "Saturday": "8:0-18:0"}}
{"business_id": "fidQ0oNwETh2LEGDZdfA7w", "name": "Designs By Christa", "address": "4302 E Ray Rd, Ste 102-1", "city": "Ahwatukee", "state": "AZ", "postal_code": "85044", "latitude": 33.3201285, "longitude": -111.9914014, "stars": 5.0, "review_count": 5, "is_open": 0, "attributes": {"ByAppointmentOnly": "True", "RestaurantsPriceRange2": "2", "BusinessParking": "{'garage': False, 'street': False, 'validated': False, 'lot': False, 'valet': False}", "BusinessAcceptsCreditCards": "True"}, "categories": "Skin Care, Hair Salons, Eyelash Service, Beauty & Spas", "hours": {"Monday": "9:0-20:0", "Tuesday": "9:0-20:0", "Wednesday": "9:0-20:0", "Thursday": "9:0-20:0", "Friday": "9:0-20:0", "Saturday": "7:0-16:0", "Sunday": "12:0-16:0"}}
{"business_id": "1s7471496i2LbUauXYAI4w", "name": "Barrow Brain and Spine - Ahwatukee", "address": "4530 E Muirwood Dr, Ste 110", "city": "Ahwatukee", "state": "AZ", "postal_code": "85048", "latitude": 33.3031873, "longitude": -111.9863898, "stars": 3.0, "review_count": 9, "is_open": 1, "attributes": {"ByAppointmentOnly": "True", "BusinessAcceptsCreditCards": "True"}, "categories": "Sports Medicine, Health & Medical, Doctors", "hours": {"Monday": "8:0-17:0", "Tuesday": "8:0-17:0", "Wednesday": "8:0-17:0", "Thursday": "8:0-17:0", "Friday": "8:0-17:0"}}
{"business_id": "-v8Z3mdbbPs1ljLziHr2DA", "name": "My Wine Cellar", "address": "5030 E Warner Rd, Ste 2", "city": "Ahwatukee", "state": "AZ", "postal_code": "85044", "latitude": 33.3339455, "longitude": -111.977862, "stars": 4.0, "review_count": 212, "is_open": 1, "attributes": {"GoodForKids": "False", "RestaurantsAttire": "u'casual'", "Alcohol": "u'beer_and_wine'", "GoodForDancing": "False", "BusinessParking": "{'garage': False, 'street': False, 'validated': False, 'lot': True, 'valet': False}", "RestaurantsTakeOut": "True", "RestaurantsDelivery": "False", "BestNights": "{'monday': False, 'tuesday': False, 'friday': True, 'wednesday': False, 'thursday': True, 'sunday': False, 'saturday': True}", "WiFi": "u'free'", "Caters": "False", "OutdoorSeating": "True", "Music": "{'dj': False, 'background_music': False, 'no_music': False, 'jukebox': False, 'live': True, 'video': False, 'karaoke': False}", "GoodForMeal": "{'dessert': False, 'latenight': False, 'lunch': False, 'dinner': True, 'brunch': False, 'breakfast': False}", "BusinessAcceptsCreditCards": "True", "RestaurantsReservations": "True", "RestaurantsPriceRange2": "2", "NoiseLevel": "u'average'", "RestaurantsGoodForGroups": "True", "Ambience": "{'romantic': False, 'intimate': False, 'touristy': False, 'hipster': False, 'divey': False, 'classy': False, 'trendy': False, 'upscale': False, 'casual': True}", "BikeParking": "True", "HasTV": "True"}, "categories": "Tapas/Small Plates, Restaurants, Beer, Wine & Spirits, Wine Bars, Breakfast & Brunch, Gastropubs, Bars, Food, Nightlife", "hours": {"Monday": "0:0-0:0", "Tuesday": "15:0-22:0", "Wednesday": "15:0-22:0", "Thursday": "15:0-22:0", "Friday": "15:0-23:0", "Saturday": "15:0-23:0"}}
{"business_id": "aNBjTE6FK1XrgssMq-BO4g", "name": "U-Haul Moving & Storage of Ahwatukee", "address": "4229 E Chandler Blvd", "city": "Ahwatukee", "state": "AZ", "postal_code": "85048", "latitude": 33.305063, "longitude": -111.991204, "stars": 3.0, "review_count": 6, "is_open": 1, "attributes": {"BusinessAcceptsCreditCards": "True", "BusinessAcceptsBitcoin": "False"}, "categories": "Home Services, Movers, Truck Rental, Local Services, Self Storage, Carpet Cleaning, Automotive, Shopping, Packing Supplies", "hours": {"Monday": "7:0-19:0", "Tuesday": "7:0-19:0", "Wednesday": "7:0-19:0", "Thursday": "7:0-19:0", "Friday": "7:0-20:0", "Saturday": "7:0-19:0", "Sunday": "9:0-17:0"}}
{"business_id": "0Rni7ocMC_Lg2UH0lDeKMQ", "name": "Barro's Pizza", "address": "4625 E Ray Rd", "city": "Ahwatukee", "state": "AZ", "postal_code": "85044", "latitude": 33.3180592287, "longitude": -111.9835282712, "stars": 3.5, "review_count": 99, "is_open": 1, "attributes": {"RestaurantsPriceRange2": "1", "RestaurantsReservations": "False", "BikeParking": "True", "BusinessParking": "{'garage': False, 'street': False, 'validated': False, 'lot': True, 'valet': False}", "RestaurantsGoodForGroups": "True", "RestaurantsDelivery": "True", "OutdoorSeating": "False", "WiFi": "'no'", "Ambience": "{'romantic': False, 'intimate': False, 'classy': False, 'hipster': False, 'divey': False, 'touristy': False, 'trendy': False, 'upscale': False, 'casual': True}", "HasTV": "True", "BusinessAcceptsCreditCards": "True", "RestaurantsAttire": "u'casual'", "Caters": "False", "RestaurantsTakeOut": "True", "Alcohol": "u'beer_and_wine'", "GoodForMeal": "{'dessert': False, 'latenight': False, 'lunch': True, 'dinner': True, 'brunch': False, 'breakfast': False}", "NoiseLevel": "'average'", "GoodForKids": "True"}, "categories": "Italian, Pizza, Sandwiches, Restaurants, Food", "hours": {"Monday": "10:30-22:0", "Tuesday": "10:30-22:0", "Wednesday": "10:30-22:0", "Thursday": "10:30-22:0", "Friday": "10:30-23:0", "Saturday": "10:30-23:0", "Sunday": "10:30-22:0"}}
{"business_id": "qdCwzhJ5Yo_Sdm_bYDIfOQ", "name": "Kathy's Alterations", "address": "3902 E Chandler Blvd", "city": "Ahwatukee", "state": "AZ", "postal_code": "85048", "latitude": 33.305546, "longitude": -112.0001065, "stars": 5.0, "review_count": 37, "is_open": 1, "attributes": {"BusinessAcceptsCreditCards": "True"}, "categories": "Sewing & Alterations, Local Services, Dry Cleaning & Laundry", "hours": {"Monday": "7:0-19:0", "Tuesday": "7:0-19:0", "Wednesday": "7:0-19:0", "Thursday": "7:0-19:0", "Friday": "7:0-19:0", "Saturday": "7:0-19:0"}}
{"business_id": "eggiaEDKJqrrHlDZqlOSow", "name": "Hi-Health", "address": "4910 E Ray Rd, Ste G13", "city": "Ahwatukee", "state": "AZ", "postal_code": "85044", "latitude": 33.3204744, "longitude": -111.9773559, "stars": 2.5, "review_count": 4, "is_open": 0, "attributes": {"BusinessParking": "{'garage': False, 'street': False, 'validated': False, 'lot': False, 'valet': False}", "BusinessAcceptsCreditCards": "True", "RestaurantsPriceRange2": "3"}, "categories": "Specialty Food, Food, Health Markets, Grocery", "hours": {"Monday": "9:0-21:0", "Tuesday": "9:0-21:0", "Wednesday": "9:0-21:0", "Thursday": "9:0-21:0", "Friday": "9:0-21:0", "Saturday": "9:0-21:0", "Sunday": "10:0-18:0"}}
{"business_id": "qkYK7WPs9OtnNRJWfMiQBg", "name": "Roger R. Roybal, DDS", "address": "4855 E Warner Rd, Ste B9", "city": "Ahwatukee", "state": "AZ", "postal_code": "85044", "latitude": 33.3295616, "longitude": -111.9786581, "stars": 5.0, "review_count": 3, "is_open": 1, "attributes": {"BusinessAcceptsCreditCards": "True"}, "categories": "Dentists, General Dentistry, Health & Medical, Oral Surgeons", "hours": null}
{"business_id": "qJf61TR4Jq9Xph5RiXPS9A", "name": "Cupz N' Crepes", "address": "4232 E Chandler Blvd", "city": "Ahwatukee", "state": "AZ", "postal_code": "85048", "latitude": 33.3058597, "longitude": -111.9913269, "stars": 4.0, "review_count": 300, "is_open": 1, "attributes": {"GoodForKids": "True", "RestaurantsGoodForGroups": "True", "RestaurantsTakeOut": "True", "RestaurantsAttire": "u'casual'", "Ambience": "{'romantic': False, 'intimate': False, 'touristy': False, 'hipster': False, 'divey': False, 'classy': False, 'trendy': False, 'upscale': False, 'casual': True}", "WiFi": "u'free'", "Caters": "False", "HasTV": "True", "BusinessAcceptsCreditCards": "True", "NoiseLevel": "u'average'", "RestaurantsTableService": "True", "RestaurantsReservations": "False", "RestaurantsPriceRange2": "1", "GoodForMeal": "{'dessert': False, 'latenight': False, 'lunch': True, 'dinner': False, 'brunch': True, 'breakfast': True}", "Alcohol": "u'none'", "RestaurantsDelivery": "False", "OutdoorSeating": "True", "BusinessParking": "{'garage': False, 'street': False, 'validated': False, 'lot': True, 'valet': False}", "BikeParking": "True"}, "categories": "Desserts, Food, Coffee & Tea, Creperies, Restaurants", "hours": {"Monday": "7:0-15:0", "Tuesday": "7:0-15:0", "Wednesday": "7:0-15:0", "Thursday": "7:0-15:0", "Friday": "7:0-15:0", "Saturday": "8:0-15:0", "Sunday": "8:0-15:0"}}
{"business_id": "M2X_MSKzvvnXeYkyIVPDlw", "name": "Cahill Landscaping", "address": "", "city": "Ahwatukee", "state": "AZ", "postal_code": "85048", "latitude": 33.3122624, "longitude": -112.0357137, "stars": 3.5, "review_count": 37, "is_open": 1, "attributes": {"BusinessAcceptsCreditCards": "False", "ByAppointmentOnly": "True"}, "categories": "Irrigation, Handyman, Tree Services, Landscaping, Home Services", "hours": {"Monday": "6:0-16:0", "Tuesday": "6:0-16:0", "Wednesday": "6:0-16:0", "Thursday": "6:0-16:0", "Friday": "6:0-16:0"}}
{"business_id": "FYWN1wneV18bWNgQjJ2GNg", "name": "Dental by Design", "address": "4855 E Warner Rd, Ste B9", "city": "Ahwatukee", "state": "AZ", "postal_code": "85044", "latitude": 33.3295616, "longitude": -111.9786581, "stars": 4.0, "review_count": 33, "is_open": 1, "attributes": {"ByAppointmentOnly": "True", "BusinessAcceptsCreditCards": "True", "AcceptsInsurance": "True"}, "categories": "Dentists, Health & Medical, Orthodontists, Cosmetic Dentists, Oral Surgeons, General Dentistry", "hours": {"Monday": "7:30-17:0", "Tuesday": "7:30-17:0", "Wednesday": "7:30-17:0", "Thursday": "7:30-17:0", "Friday": "7:30-17:0"}}
{"business_id": "ZzZO_FIzICDLxHs7ooYgbQ", "name": "Desert Dog Pet Care", "address": "", "city": "Ahwatukee", "state": "AZ", "postal_code": "85048", "latitude": 33.3122624, "longitude": -112.0357137, "stars": 4.5, "review_count": 11, "is_open": 0, "attributes": null, "categories": "Pet Services, Pets, Dog Walkers, Pet Sitting", "hours": {"Monday": "7:0-19:0", "Tuesday": "7:0-19:0", "Wednesday": "7:0-19:0", "Thursday": "7:0-19:0", "Friday": "7:0-19:0", "Saturday": "7:0-19:0", "Sunday": "7:0-19:0"}}
{"business_id": "gPK7baX7rd5JVvgytywRmw", "name": "Keep It Cut - Ahwatukee", "address": "4025 E Chandler Blvd, Ste 50", "city": "Ahwatukee", "state": "AZ", "postal_code": "85048", "latitude": 33.3044612, "longitude": -111.9945187, "stars": 4.5, "review_count": 29, "is_open": 1, "attributes": {"BikeParking": "True", "GoodForKids": "True", "BusinessParking": "{'garage': False, 'street': True, 'validated': False, 'lot': True, 'valet': False}", "RestaurantsPriceRange2": "2", "ByAppointmentOnly": "False", "WheelchairAccessible": "True", "BusinessAcceptsBitcoin": "False", "BusinessAcceptsCreditCards": "True"}, "categories": "Hair Salons, Beauty & Spas, Men's Hair Salons, Barbers", "hours": {"Monday": "0:0-0:0", "Tuesday": "9:0-20:0", "Wednesday": "9:0-20:0", "Thursday": "9:0-20:0", "Friday": "9:0-20:0", "Saturday": "9:0-19:0", "Sunday": "10:0-18:0"}}
{"business_id": "sRAlmOAL7x8_o30-hXpdog", "name": "Healthy and Clean Living Environments", "address": "", "city": "Ahwatukee", "state": "AZ", "postal_code": "85048", "latitude": 33.3122624, "longitude": -112.0357137, "stars": 4.5, "review_count": 4, "is_open": 1, "attributes": {"BusinessAcceptsCreditCards": "True"}, "categories": "Local Services, Carpet Cleaning", "hours": {"Monday": "9:0-17:0", "Tuesday": "9:0-17:0", "Wednesday": "9:0-17:0", "Thursday": "9:0-17:0", "Friday": "9:0-17:0", "Saturday": "9:0-17:0"}}
